{
"type": "FeatureCollection",
"name": "Sacramento-2025.03.31",
"crs": { "type": "name", "properties": { "name": "urn:ogc:def:crs:OGC:1.3:CRS84" } },
"features": [
{ "type": "Feature", "properties": { "builder": "Lennar", "community": "Cyan at The Preserve", "project_type": "Single Family", "status": "Active", "price_min_raw": 604990, "price_max_raw": 641990, "sf_min": 1765, "sf_max": 2179, "price_range": "$604,990 – $641,990", "sf_range": "1,765 – 2,179 SF", "city": "Rancho Cordova", "county": "Sacramento", "state": "CA", "zip": 95742 }, "geometry": { "type": "Point", "coordinates": [ -121.2023, 38.5419 ] } },
{ "type": "Feature", "properties": { "builder": "Tri Pointe Homes", "community": "Riverblossom at Montelena", "project_type": "Single Family", "status": "Active", "price_min_raw": 557655, "price_max_raw": 632495, "sf_min": 1752, "sf_max": 2181, "price_range": "$557,655 – $632,495", "sf_range": "1,752 – 2,181 SF", "city": "Rancho Cordova", "county": "Sacramento", "state": "CA", "zip": 95742 }, "geometry": { "type": "Point", "coordinates": [ -121.226693, 38.552828 ] } },
{ "type": "Feature", "properties": { "builder": "Lennar", "community": "Aqua at The Preserve", "project_type": "Single Family", "status": "Active", "price_min_raw": 579347, "price_max_raw": 640697, "sf_min": 1879, "sf_max": 2623, "price_range": "$579,347 – $640,697", "sf_range": "1,879 – 2,623 SF", "city": "Rancho Cordova", "county": "Sacramento", "state": "CA", "zip": 95742 }, "geometry": { "type": "Point", "coordinates": [ -121.2023, 38.5419 ] } },
{ "type": "Feature", "properties": { "builder": "LGI Homes", "community": "Camden Shire", "project_type": "Not Specified", "status": "Active", "price_min_raw": 499900, "price_max_raw": 585900, "sf_min": 1235, "sf_max": 2208, "price_range": "$499,900 – $585,900", "sf_range": "1,235 – 2,208 SF", "city": "Patterson", "county": "Stanislaus", "state": "CA", "zip": 95363 }, "geometry": { "type": "Point", "coordinates": [ -121.12846, 37.486408 ] } },
{ "type": "Feature", "properties": { "builder": "Lennar", "community": "Cobalt at The Preserve", "project_type": "Single Family", "status": "Active", "price_min_raw": 709990, "price_max_raw": 784990, "sf_min": 2679, "sf_max": 3427, "price_range": "$709,990 – $784,990", "sf_range": "2,679 – 3,427 SF", "city": "Rancho Cordova", "county": "Sacramento", "state": "CA", "zip": 95742 }, "geometry": { "type": "Point", "coordinates": [ -121.2023, 38.5419 ] } },
{ "type": "Feature", "properties": { "builder": "Lennar", "community": "Breezes at Westlake", "project_type": "Single Family", "status": "Active", "price_min_raw": 605990, "price_max_raw": 760990, "sf_min": 2138, "sf_max": 3308, "price_range": "$605,990 – $760,990", "sf_range": "2,138 – 3,308 SF", "city": "Stockton", "county": "San Joaquin", "state": "CA", "zip": 95219 }, "geometry": { "type": "Point", "coordinates": [ -121.4022, 38.0568 ] } },
{ "type": "Feature", "properties": { "builder": "Lennar", "community": "Breakers Cove at Westlake", "project_type": "Single Family", "status": "Active", "price_min_raw": 533780, "price_max_raw": 693990, "sf_min": 1765, "sf_max": 2966, "price_range": "$533,780 – $693,990", "sf_range": "1,765 – 2,966 SF", "city": "Stockton", "county": "San Joaquin", "state": "CA", "zip": 95219 }, "geometry": { "type": "Point", "coordinates": [ -121.4022, 38.0568 ] } },
{ "type": "Feature", "properties": { "builder": "Elliott Homes", "community": "Veranda at Stone Creek Village", "project_type": "Single Family", "status": "Active", "price_min_raw": 465950, "price_max_raw": 537273, "sf_min": 1452, "sf_max": 1923, "price_range": "$465,950 – $537,273", "sf_range": "1,452 – 1,923 SF", "city": "Rancho Cordova", "county": "Sacramento", "state": "CA", "zip": 95670 }, "geometry": { "type": "Point", "coordinates": [ -121.28001, 38.576738 ] } },
{ "type": "Feature", "properties": { "builder": "LGI Homes", "community": "Mattos Ranch", "project_type": "Not Specified", "status": "Active", "price_min_raw": 478900, "price_max_raw": 589900, "sf_min": 1252, "sf_max": 2496, "price_range": "$478,900 – $589,900", "sf_range": "1,252 – 2,496 SF", "city": "Patterson", "county": "Stanislaus", "state": "CA", "zip": 95363 }, "geometry": { "type": "Point", "coordinates": [ -121.125885, 37.486408 ] } },
{ "type": "Feature", "properties": { "builder": "Century Communities", "community": "Malana at Lakeview", "project_type": null, "status": "Active", "price_min_raw": 1003990, "price_max_raw": 1104990, "sf_min": 2353, "sf_max": 2807, "price_range": "$1,003,990 – $1,104,990", "sf_range": "2,353 – 2,807 SF", "city": "Mountain House", "county": "San Joaquin", "state": "CA", "zip": 95391 }, "geometry": { "type": "Point", "coordinates": [ -121.539898, 37.785218 ] } },
{ "type": "Feature", "properties": { "builder": "New Home Co.", "community": "Long Meadow", "project_type": "Not Specified", "status": "Active", "price_min_raw": 662400, "price_max_raw": 771265, "sf_min": 0, "sf_max": 2769, "price_range": "$662,400 – $771,265", "sf_range": "0 – 2,769 SF", "city": "Elk Grove", "county": "Sacramento", "state": "CA", "zip": 95624 }, "geometry": { "type": "Point", "coordinates": [ -121.391521, 38.438805 ] } },
{ "type": "Feature", "properties": { "builder": "Homes By Towne", "community": "The Paseos at Carmichael", "project_type": "Not Specified", "status": "Active", "price_min_raw": 490900, "price_max_raw": 625500, "sf_min": 1143, "sf_max": 1938, "price_range": "$490,900 – $625,500", "sf_range": "1,143 – 1,938 SF", "city": "Carmichael", "county": "Sacramento", "state": "CA", "zip": 95608 }, "geometry": { "type": "Point", "coordinates": [ -121.31121, 38.637719 ] } },
{ "type": "Feature", "properties": { "builder": "KB Home", "community": "Hayworth at The Grove", "project_type": "Single Family", "status": "Active", "price_min_raw": 660990, "price_max_raw": 848491, "sf_min": 2002, "sf_max": 3061, "price_range": "$660,990 – $848,491", "sf_range": "2,002 – 3,061 SF", "city": "Elk Grove", "county": "Sacramento", "state": "CA", "zip": 95757 }, "geometry": { "type": "Point", "coordinates": [ -121.422761, 38.35919 ] } },
{ "type": "Feature", "properties": { "builder": "K. Hovnanian's® Four Seasons", "community": "K. Hovnanian's® Four Seasons at The Ranch", "project_type": "Single Family", "status": "Active", "price_min_raw": 482840, "price_max_raw": 835190, "sf_min": 1307, "sf_max": 2916, "price_range": "$482,840 – $835,190", "sf_range": "1,307 – 2,916 SF", "city": "Rancho Cordova", "county": "Sacramento", "state": "CA", "zip": 95742 }, "geometry": null },
{ "type": "Feature", "properties": { "builder": "Century Communities", "community": "Twelve Bridges", "project_type": null, "status": "Active", "price_min_raw": 0, "price_max_raw": 667365, "sf_min": 1518, "sf_max": 2431, "price_range": "$0 – $667,365", "sf_range": "1,518 – 2,431 SF", "city": "Lincoln", "county": "Placer", "state": "CA", "zip": 95648 }, "geometry": { "type": "Point", "coordinates": [ -121.296053, 38.859553 ] } },
{ "type": "Feature", "properties": { "builder": "K. Hovnanian® Homes", "community": "Pacifica at Stanford Crossing", "project_type": "Single Family", "status": "Active", "price_min_raw": 753990, "price_max_raw": 852164, "sf_min": 2558, "sf_max": 2924, "price_range": "$753,990 – $852,164", "sf_range": "2,558 – 2,924 SF", "city": "Lathrop", "county": "San Joaquin", "state": "CA", "zip": 95330 }, "geometry": { "type": "Point", "coordinates": [ -121.299797, 37.817047 ] } },
{ "type": "Feature", "properties": { "builder": "KB Home", "community": "Aurora Heights at Twelve Bridges", "project_type": "Single Family", "status": "Active", "price_min_raw": 462030, "price_max_raw": 532358, "sf_min": 1373, "sf_max": 1803, "price_range": "$462,030 – $532,358", "sf_range": "1,373 – 1,803 SF", "city": "Lincoln", "county": "Placer", "state": "CA", "zip": 95648 }, "geometry": { "type": "Point", "coordinates": [ -121.293104, 38.860065 ] } },
{ "type": "Feature", "properties": { "builder": "Lennar", "community": "Casera Meadows at Pioneer Village", "project_type": "Single Family", "status": "Active", "price_min_raw": 684990, "price_max_raw": 802425, "sf_min": 2127, "sf_max": 2786, "price_range": "$684,990 – $802,425", "sf_range": "2,127 – 2,786 SF", "city": "Woodland", "county": "Yolo", "state": "CA", "zip": 95776 }, "geometry": { "type": "Point", "coordinates": [ -121.7465, 38.6599 ] } },
{ "type": "Feature", "properties": { "builder": "Toll Brothers", "community": "Regency at Tracy Lakes - Pinecrest Collection", "project_type": "Single Family", "status": "Active", "price_min_raw": 641995, "price_max_raw": 732995, "sf_min": 1560, "sf_max": 1919, "price_range": "$641,995 – $732,995", "sf_range": "1,560 – 1,919 SF", "city": "Tracy", "county": "San Joaquin", "state": "CA", "zip": 95377 }, "geometry": { "type": "Point", "coordinates": [ -121.44696, 37.708172 ] } },
{ "type": "Feature", "properties": { "builder": "Richmond American Homes", "community": "Encore at Stanford Crossing", "project_type": "Single Family", "status": "Active", "price_min_raw": 587950, "price_max_raw": 743654, "sf_min": 1590, "sf_max": 2630, "price_range": "$587,950 – $743,654", "sf_range": "1,590 – 2,630 SF", "city": "Lathrop", "county": "San Joaquin", "state": "CA", "zip": 95330 }, "geometry": { "type": "Point", "coordinates": [ -121.30869, 37.823252 ] } },
{ "type": "Feature", "properties": { "builder": "Tri Pointe Homes", "community": "Monument at Independence", "project_type": "Single Family", "status": "Active", "price_min_raw": 598282, "price_max_raw": 713171, "sf_min": 2158, "sf_max": 2921, "price_range": "$598,282 – $713,171", "sf_range": "2,158 – 2,921 SF", "city": "Lincoln", "county": "Placer", "state": "CA", "zip": 95648 }, "geometry": { "type": "Point", "coordinates": [ -121.331458, 38.895531 ] } },
{ "type": "Feature", "properties": { "builder": "Beazer Homes", "community": "Riverhaven", "project_type": "Single Family", "status": "Active", "price_min_raw": 518990, "price_max_raw": 749990, "sf_min": 1360, "sf_max": 1849, "price_range": "$518,990 – $749,990", "sf_range": "1,360 – 1,849 SF", "city": "Sacramento", "county": "Sacramento", "state": "CA", "zip": 95828 }, "geometry": { "type": "Point", "coordinates": [ -121.384403, 38.472783 ] } },
{ "type": "Feature", "properties": { "builder": "Tim Lewis Communities", "community": "Magnolia at Granite Bay", "project_type": "Not Specified", "status": "Active", "price_min_raw": 1999000, "price_max_raw": 2390000, "sf_min": 3765, "sf_max": 5104, "price_range": "$1,999,000 – $2,390,000", "sf_range": "3,765 – 5,104 SF", "city": "Granite Bay", "county": "Placer", "state": "CA", "zip": 95746 }, "geometry": { "type": "Point", "coordinates": [ -121.21888, 38.75512 ] } },
{ "type": "Feature", "properties": { "builder": "Beazer Homes", "community": "Pinnacle at Solaire", "project_type": "Single Family", "status": "Active", "price_min_raw": 565990, "price_max_raw": 694990, "sf_min": 1564, "sf_max": 2724, "price_range": "$565,990 – $694,990", "sf_range": "1,564 – 2,724 SF", "city": "Roseville", "county": "Placer", "state": "CA", "zip": 95747 }, "geometry": { "type": "Point", "coordinates": [ -121.392139, 38.765718 ] } },
{ "type": "Feature", "properties": { "builder": "Lennar", "community": "Brightwood at Rio Del Oro", "project_type": "Single Family", "status": "Active", "price_min_raw": 526990, "price_max_raw": 616990, "sf_min": 1832, "sf_max": 2629, "price_range": "$526,990 – $616,990", "sf_range": "1,832 – 2,629 SF", "city": "Plumas Lake", "county": "Yuba", "state": "CA", "zip": 95961 }, "geometry": { "type": "Point", "coordinates": [ -121.5601, 39.0178 ] } },
{ "type": "Feature", "properties": { "builder": "Lennar", "community": "Pembrook at Rio Del Oro", "project_type": "Single Family", "status": "Active", "price_min_raw": 531990, "price_max_raw": 657990, "sf_min": 1789, "sf_max": 2869, "price_range": "$531,990 – $657,990", "sf_range": "1,789 – 2,869 SF", "city": "Plumas Lake", "county": "Yuba", "state": "CA", "zip": 95961 }, "geometry": { "type": "Point", "coordinates": [ -121.5601, 39.0178 ] } },
{ "type": "Feature", "properties": { "builder": "Lennar", "community": "Heritage El Dorado Hills | Active Adult", "project_type": "Single Family", "status": "Active", "price_min_raw": 578990, "price_max_raw": 646990, "sf_min": 1497, "sf_max": 1784, "price_range": "$578,990 – $646,990", "sf_range": "1,497 – 1,784 SF", "city": "El Dorado Hills", "county": "El Dorado", "state": "CA", "zip": 95762 }, "geometry": { "type": "Point", "coordinates": [ -121.0676, 38.6213 ] } },
{ "type": "Feature", "properties": { "builder": "Cresleigh Homes", "community": "Cresleigh Grove at Plumas Ranch", "project_type": "Not Specified", "status": "Active", "price_min_raw": 461000, "price_max_raw": 661353, "sf_min": 0, "sf_max": 3497, "price_range": "$461,000 – $661,353", "sf_range": "0 – 3,497 SF", "city": "Plumas Lake", "county": "Yuba", "state": "CA", "zip": 95961 }, "geometry": { "type": "Point", "coordinates": [ -121.548421, 38.977268 ] } },
{ "type": "Feature", "properties": { "builder": "Woodside Homes", "community": "Sycamore at Cypress", "project_type": "Single Family", "status": "Active", "price_min_raw": 640990, "price_max_raw": 842990, "sf_min": 0, "sf_max": 2879, "price_range": "$640,990 – $842,990", "sf_range": "0 – 2,879 SF", "city": "Rancho Cordova", "county": "Sacramento", "state": "CA", "zip": 95742 }, "geometry": { "type": "Point", "coordinates": [ -121.194059, 38.54532 ] } },
{ "type": "Feature", "properties": { "builder": "Tri Pointe Homes", "community": "Vibrance at Solaire", "project_type": "Single Family", "status": "Active", "price_min_raw": 614072, "price_max_raw": 738816, "sf_min": 2023, "sf_max": 2393, "price_range": "$614,072 – $738,816", "sf_range": "2,023 – 2,393 SF", "city": "Roseville", "county": "Placer", "state": "CA", "zip": 95747 }, "geometry": { "type": "Point", "coordinates": [ -121.388187, 38.766655 ] } },
{ "type": "Feature", "properties": { "builder": "Lennar", "community": "Tracy Hills - Ridgerton", "project_type": "Single Family", "status": "Active", "price_min_raw": 833712, "price_max_raw": 1099492, "sf_min": 2363, "sf_max": 3551, "price_range": "$833,712 – $1,099,492", "sf_range": "2,363 – 3,551 SF", "city": "Tracy", "county": "San Joaquin", "state": "CA", "zip": 95377 }, "geometry": { "type": "Point", "coordinates": [ -121.4675, 37.6659 ] } },
{ "type": "Feature", "properties": { "builder": "Taylor Morrison", "community": "Sage at Oakwood Trails", "project_type": "Single Family", "status": "Active", "price_min_raw": 660990, "price_max_raw": 770000, "sf_min": 2028, "sf_max": 2725, "price_range": "$660,990 – $770,000", "sf_range": "2,028 – 2,725 SF", "city": "Manteca", "county": "San Joaquin", "state": "CA", "zip": 95337 }, "geometry": { "type": "Point", "coordinates": [ -121.271256, 37.775953 ] } },
{ "type": "Feature", "properties": { "builder": "Lennar", "community": "Tracy Hills - Slateshire", "project_type": "Single Family", "status": "Active", "price_min_raw": 969880, "price_max_raw": 1233366, "sf_min": 2908, "sf_max": 4095, "price_range": "$969,880 – $1,233,366", "sf_range": "2,908 – 4,095 SF", "city": "Tracy", "county": "San Joaquin", "state": "CA", "zip": 95377 }, "geometry": { "type": "Point", "coordinates": [ -121.467, 37.6753 ] } },
{ "type": "Feature", "properties": { "builder": "Elliott Homes", "community": "Sutter at Rio Del Oro", "project_type": "Single Family", "status": "Active", "price_min_raw": 622950, "price_max_raw": 730310, "sf_min": 1566, "sf_max": 2353, "price_range": "$622,950 – $730,310", "sf_range": "1,566 – 2,353 SF", "city": "Rancho Cordova", "county": "Sacramento", "state": "CA", "zip": 95742 }, "geometry": { "type": "Point", "coordinates": [ -121.25352, 38.58921 ] } },
{ "type": "Feature", "properties": { "builder": "Lennar", "community": "Tracy Hills - Cairnway", "project_type": "Single Family", "status": "Active", "price_min_raw": 799880, "price_max_raw": 977880, "sf_min": 2220, "sf_max": 3196, "price_range": "$799,880 – $977,880", "sf_range": "2,220 – 3,196 SF", "city": "Tracy", "county": "San Joaquin", "state": "CA", "zip": 95377 }, "geometry": { "type": "Point", "coordinates": [ -121.4634, 37.6707 ] } },
{ "type": "Feature", "properties": { "builder": "Tri Pointe Homes", "community": "Starblossom at Montelena", "project_type": "Single Family", "status": "Active", "price_min_raw": 595792, "price_max_raw": 692002, "sf_min": 1723, "sf_max": 2705, "price_range": "$595,792 – $692,002", "sf_range": "1,723 – 2,705 SF", "city": "Rancho Cordova", "county": "Sacramento", "state": "CA", "zip": 95742 }, "geometry": { "type": "Point", "coordinates": [ -121.228085, 38.548119 ] } },
{ "type": "Feature", "properties": { "builder": "Toll Brothers", "community": "Regency at Tracy Lakes - Calero Collection", "project_type": "Single Family", "status": "Active", "price_min_raw": 843995, "price_max_raw": 1132572, "sf_min": 2393, "sf_max": 2520, "price_range": "$843,995 – $1,132,572", "sf_range": "2,393 – 2,520 SF", "city": "Tracy", "county": "San Joaquin", "state": "CA", "zip": 95377 }, "geometry": { "type": "Point", "coordinates": [ -121.44696, 37.708172 ] } },
{ "type": "Feature", "properties": { "builder": "Lennar", "community": "Melody at Arbor Ranch", "project_type": "Single Family", "status": "Active", "price_min_raw": 582990, "price_max_raw": 621990, "sf_min": 1651, "sf_max": 2107, "price_range": "$582,990 – $621,990", "sf_range": "1,651 – 2,107 SF", "city": "Elk Grove", "county": "Sacramento", "state": "CA", "zip": 95757 }, "geometry": { "type": "Point", "coordinates": [ -121.3729, 38.4915 ] } },
{ "type": "Feature", "properties": { "builder": "Lennar", "community": "The Towns at Greenwood", "project_type": "Single Family", "status": "Active", "price_min_raw": 457990, "price_max_raw": 553990, "sf_min": 1328, "sf_max": 2072, "price_range": "$457,990 – $553,990", "sf_range": "1,328 – 2,072 SF", "city": "Galt", "county": "Sacramento", "state": "CA", "zip": 95632 }, "geometry": { "type": "Point", "coordinates": [ -121.299, 38.2896 ] } },
{ "type": "Feature", "properties": { "builder": "Elliott Homes", "community": "Placer at Rio Del Oro", "project_type": "Single Family", "status": "Active", "price_min_raw": 724950, "price_max_raw": 914840, "sf_min": 2130, "sf_max": 3127, "price_range": "$724,950 – $914,840", "sf_range": "2,130 – 3,127 SF", "city": "Rancho Cordova", "county": "Sacramento", "state": "CA", "zip": 95742 }, "geometry": { "type": "Point", "coordinates": [ -121.251405, 38.590955 ] } },
{ "type": "Feature", "properties": { "builder": "Richmond American Homes", "community": "Seasons at Sierra Vista", "project_type": "Single Family", "status": "Active", "price_min_raw": 562773, "price_max_raw": 661174, "sf_min": 1730, "sf_max": 2630, "price_range": "$562,773 – $661,174", "sf_range": "1,730 – 2,630 SF", "city": "Roseville", "county": "Placer", "state": "CA", "zip": 95747 }, "geometry": { "type": "Point", "coordinates": [ -121.381337, 38.759506 ] } },
{ "type": "Feature", "properties": { "builder": "Taylor Morrison", "community": "Trailhead at Wildhawk North", "project_type": null, "status": "Active", "price_min_raw": 576999, "price_max_raw": 646895, "sf_min": 2188, "sf_max": 2437, "price_range": "$576,999 – $646,895", "sf_range": "2,188 – 2,437 SF", "city": "Sacramento", "county": "Sacramento", "state": "CA", "zip": 95829 }, "geometry": { "type": "Point", "coordinates": [ -121.321619, 38.481252 ] } },
{ "type": "Feature", "properties": { "builder": "Trumark Homes", "community": "Vida at The Collective 55+", "project_type": "Single Family", "status": "Active", "price_min_raw": 399000, "price_max_raw": 577695, "sf_min": 1297, "sf_max": 1708, "price_range": "$399,000 – $577,695", "sf_range": "1,297 – 1,708 SF", "city": "Manteca", "county": "San Joaquin", "state": "CA", "zip": 95336 }, "geometry": { "type": "Point", "coordinates": [ -121.201719, 37.817202 ] } },
{ "type": "Feature", "properties": { "builder": "Richmond American Homes", "community": "Seasons at Riverton South", "project_type": "Single Family", "status": "Active", "price_min_raw": 484950, "price_max_raw": 532874, "sf_min": 1750, "sf_max": 2080, "price_range": "$484,950 – $532,874", "sf_range": "1,750 – 2,080 SF", "city": "Plumas Lake", "county": "Yuba", "state": "CA", "zip": 95961 }, "geometry": { "type": "Point", "coordinates": [ -121.556563, 39.002619 ] } },
{ "type": "Feature", "properties": { "builder": "Tri Pointe Homes", "community": "The Knolls at Mountain House", "project_type": "Single Family", "status": "Coming Soon", "price_min_raw": 0, "price_max_raw": 0, "sf_min": 2400, "sf_max": 3003, "price_range": "$0 – $0", "sf_range": "2,400 – 3,003 SF", "city": "Mountain House", "county": "San Joaquin", "state": "CA", "zip": 95391 }, "geometry": { "type": "Point", "coordinates": [ -121.551797, 37.752865 ] } },
{ "type": "Feature", "properties": { "builder": "Century Communities", "community": "Rialto Collection", "project_type": null, "status": "Active", "price_min_raw": 609990, "price_max_raw": 667365, "sf_min": 2259, "sf_max": 2431, "price_range": "$609,990 – $667,365", "sf_range": "2,259 – 2,431 SF", "city": "Lincoln", "county": "Placer", "state": "CA", "zip": 95648 }, "geometry": { "type": "Point", "coordinates": [ -121.295378, 38.860381 ] } },
{ "type": "Feature", "properties": { "builder": "Next New Homes Group", "community": "Canyon Creek", "project_type": "Not Specified", "status": "Active", "price_min_raw": 998055, "price_max_raw": 1431302, "sf_min": 0, "sf_max": 4101, "price_range": "$998,055 – $1,431,302", "sf_range": "0 – 4,101 SF", "city": "Auburn", "county": "Placer", "state": "CA", "zip": 95603 }, "geometry": { "type": "Point", "coordinates": [ -121.069248, 38.879618 ] } },
{ "type": "Feature", "properties": { "builder": "Lennar", "community": "Lakeshore - Lugano", "project_type": "Single Family", "status": "Active", "price_min_raw": 905880, "price_max_raw": 1063880, "sf_min": 1829, "sf_max": 2289, "price_range": "$905,880 – $1,063,880", "sf_range": "1,829 – 2,289 SF", "city": "Mountain House", "county": "San Joaquin", "state": "CA", "zip": 95391 }, "geometry": { "type": "Point", "coordinates": [ -121.5344, 37.7924 ] } },
{ "type": "Feature", "properties": { "builder": "Lennar", "community": "Sterling Hills at Russell Ranch", "project_type": "Single Family", "status": "Active", "price_min_raw": 769990, "price_max_raw": 938990, "sf_min": 2154, "sf_max": 3308, "price_range": "$769,990 – $938,990", "sf_range": "2,154 – 3,308 SF", "city": "Folsom", "county": "Sacramento", "state": "CA", "zip": 95630 }, "geometry": { "type": "Point", "coordinates": [ -121.096, 38.6292 ] } },
{ "type": "Feature", "properties": { "builder": "New Home Co.", "community": "The Trails at Valley Oak", "project_type": "Not Specified", "status": "Active", "price_min_raw": 1044460, "price_max_raw": 1251885, "sf_min": 3365, "sf_max": 4403, "price_range": "$1,044,460 – $1,251,885", "sf_range": "3,365 – 4,403 SF", "city": "Roseville", "county": "Placer", "state": "CA", "zip": 95747 }, "geometry": { "type": "Point", "coordinates": [ -121.324217, 38.78596 ] } },
{ "type": "Feature", "properties": { "builder": "Lennar", "community": "Tracy Hills - Greenwood", "project_type": "Single Family", "status": "Active", "price_min_raw": 799661, "price_max_raw": 938063, "sf_min": 2452, "sf_max": 2869, "price_range": "$799,661 – $938,063", "sf_range": "2,452 – 2,869 SF", "city": "Tracy", "county": "San Joaquin", "state": "CA", "zip": 95377 }, "geometry": { "type": "Point", "coordinates": [ -121.4835, 37.6912 ] } },
{ "type": "Feature", "properties": { "builder": "Meritage Homes", "community": "Eastwood at Machado Ranch", "project_type": "Single Family", "status": "Active", "price_min_raw": 682450, "price_max_raw": 762950, "sf_min": 1898, "sf_max": 2896, "price_range": "$682,450 – $762,950", "sf_range": "1,898 – 2,896 SF", "city": "Manteca", "county": "San Joaquin", "state": "CA", "zip": 95337 }, "geometry": { "type": "Point", "coordinates": [ -121.258711, 37.77333 ] } },
{ "type": "Feature", "properties": { "builder": "Woodside Homes", "community": "Wildflower at Winding Creek", "project_type": "Single Family", "status": "Active", "price_min_raw": 759990, "price_max_raw": 859990, "sf_min": 2330, "sf_max": 3217, "price_range": "$759,990 – $859,990", "sf_range": "2,330 – 3,217 SF", "city": "Roseville", "county": "Placer", "state": "CA", "zip": 95747 }, "geometry": { "type": "Point", "coordinates": [ -121.38073, 38.799785 ] } },
{ "type": "Feature", "properties": { "builder": "Lennar", "community": "Brass Pointe at Russell Ranch", "project_type": "Single Family", "status": "Active", "price_min_raw": 789990, "price_max_raw": 991208, "sf_min": 2143, "sf_max": 3182, "price_range": "$789,990 – $991,208", "sf_range": "2,143 – 3,182 SF", "city": "Folsom", "county": "Sacramento", "state": "CA", "zip": 95630 }, "geometry": { "type": "Point", "coordinates": [ -121.096, 38.6292 ] } },
{ "type": "Feature", "properties": { "builder": "Meritage Homes", "community": "Durham at East Village", "project_type": "Single Family", "status": "Coming Soon", "price_min_raw": 0, "price_max_raw": 0, "sf_min": 2098, "sf_max": 3247, "price_range": "$0 – $0", "sf_range": "2,098 – 3,247 SF", "city": "Sacramento", "county": "Sacramento", "state": "CA", "zip": 95835 }, "geometry": { "type": "Point", "coordinates": [ -121.490978, 38.670227 ] } },
{ "type": "Feature", "properties": { "builder": "Lennar", "community": "Bordeaux II at Vineyard Parke", "project_type": "Single Family", "status": "Active", "price_min_raw": 615990, "price_max_raw": 702990, "sf_min": 1991, "sf_max": 3025, "price_range": "$615,990 – $702,990", "sf_range": "1,991 – 3,025 SF", "city": "Sacramento", "county": "Sacramento", "state": "CA", "zip": 95829 }, "geometry": { "type": "Point", "coordinates": [ -121.3729, 38.4915 ] } },
{ "type": "Feature", "properties": { "builder": "K. Hovnanian® Homes", "community": "Reserve at The Ranch", "project_type": "Single Family", "status": "Active", "price_min_raw": 715490, "price_max_raw": 852990, "sf_min": 2399, "sf_max": 3383, "price_range": "$715,490 – $852,990", "sf_range": "2,399 – 3,383 SF", "city": "Rancho Cordova", "county": "Sacramento", "state": "CA", "zip": 95742 }, "geometry": { "type": "Point", "coordinates": [ -121.216452, 38.550116 ] } },
{ "type": "Feature", "properties": { "builder": "Lennar", "community": "Tracy Hills - Boulder", "project_type": "Single Family", "status": "Active", "price_min_raw": 760776, "price_max_raw": 899880, "sf_min": 2164, "sf_max": 2795, "price_range": "$760,776 – $899,880", "sf_range": "2,164 – 2,795 SF", "city": "Tracy", "county": "San Joaquin", "state": "CA", "zip": 95377 }, "geometry": { "type": "Point", "coordinates": [ -121.467, 37.6753 ] } },
{ "type": "Feature", "properties": { "builder": "Pulte Homes", "community": "Ascent at Montelena", "project_type": "Single Family", "status": "Active", "price_min_raw": 625990, "price_max_raw": 742443, "sf_min": 2526, "sf_max": 3111, "price_range": "$625,990 – $742,443", "sf_range": "2,526 – 3,111 SF", "city": "Rancho Cordova", "county": "Sacramento", "state": "CA", "zip": 95742 }, "geometry": { "type": "Point", "coordinates": [ -121.230793, 38.555756 ] } },
{ "type": "Feature", "properties": { "builder": "Van Daele Homes", "community": "Hideaway at River Islands", "project_type": "Not Specified", "status": "Active", "price_min_raw": 497990, "price_max_raw": 586990, "sf_min": 1447, "sf_max": 1860, "price_range": "$497,990 – $586,990", "sf_range": "1,447 – 1,860 SF", "city": "Lathrop", "county": "San Joaquin", "state": "CA", "zip": 95330 }, "geometry": { "type": "Point", "coordinates": [ -121.336047, 37.802525 ] } },
{ "type": "Feature", "properties": { "builder": "Lennar", "community": "The Cottages at Greenwood", "project_type": "Single Family", "status": "Active", "price_min_raw": 531990, "price_max_raw": 576990, "sf_min": 1883, "sf_max": 2339, "price_range": "$531,990 – $576,990", "sf_range": "1,883 – 2,339 SF", "city": "Galt", "county": "Sacramento", "state": "CA", "zip": 95632 }, "geometry": { "type": "Point", "coordinates": [ -121.299, 38.2896 ] } },
{ "type": "Feature", "properties": { "builder": "KB Home", "community": "Fairfax at The Grove", "project_type": "Single Family", "status": "Active", "price_min_raw": 605990, "price_max_raw": 724990, "sf_min": 1550, "sf_max": 2713, "price_range": "$605,990 – $724,990", "sf_range": "1,550 – 2,713 SF", "city": "Elk Grove", "county": "Sacramento", "state": "CA", "zip": 95757 }, "geometry": { "type": "Point", "coordinates": [ -121.392632, 38.390073 ] } },
{ "type": "Feature", "properties": { "builder": "Elliott Homes", "community": "Laurel at Elliott Springs", "project_type": "Single Family", "status": "Grand Opening", "price_min_raw": 662950, "price_max_raw": 792950, "sf_min": 1609, "sf_max": 2498, "price_range": "$662,950 – $792,950", "sf_range": "1,609 – 2,498 SF", "city": "Elk Grove", "county": "Sacramento", "state": "CA", "zip": 95624 }, "geometry": { "type": "Point", "coordinates": [ -121.353434, 38.426518 ] } },
{ "type": "Feature", "properties": { "builder": "Tim Lewis Communities", "community": "Morgan Place", "project_type": "Not Specified", "status": "Active", "price_min_raw": 578900, "price_max_raw": 724446, "sf_min": 1891, "sf_max": 2755, "price_range": "$578,900 – $724,446", "sf_range": "1,891 – 2,755 SF", "city": "Roseville", "county": "Placer", "state": "CA", "zip": 95747 }, "geometry": { "type": "Point", "coordinates": [ -121.36426, 38.7269 ] } },
{ "type": "Feature", "properties": { "builder": "Henson Ranch", "community": "Henson Ranch", "project_type": "Not Specified", "status": "Active", "price_min_raw": 539999, "price_max_raw": 722515, "sf_min": 0, "sf_max": 2936, "price_range": "$539,999 – $722,515", "sf_range": "0 – 2,936 SF", "city": "Yuba City", "county": "Sutter", "state": "CA", "zip": 95993 }, "geometry": { "type": "Point", "coordinates": [ -121.66722, 39.14379 ] } },
{ "type": "Feature", "properties": { "builder": "Meritage Homes", "community": "Heston at Machado Ranch", "project_type": "Single Family", "status": "Active", "price_min_raw": 754450, "price_max_raw": 797950, "sf_min": 2515, "sf_max": 3127, "price_range": "$754,450 – $797,950", "sf_range": "2,515 – 3,127 SF", "city": "Manteca", "county": "San Joaquin", "state": "CA", "zip": 95337 }, "geometry": { "type": "Point", "coordinates": [ -121.259939, 37.775427 ] } },
{ "type": "Feature", "properties": { "builder": "Bright Homes", "community": "Marcona", "project_type": "Not Specified", "status": "Grand Opening", "price_min_raw": 496990, "price_max_raw": 634990, "sf_min": 1600, "sf_max": 2846, "price_range": "$496,990 – $634,990", "sf_range": "1,600 – 2,846 SF", "city": "Keyes", "county": "Stanislaus", "state": "CA", "zip": 95328 }, "geometry": { "type": "Point", "coordinates": [ -120.905922, 37.557174 ] } },
{ "type": "Feature", "properties": { "builder": "Taylor Morrison", "community": "Orchard at Madeira Ranch", "project_type": "Single Family", "status": "Active", "price_min_raw": 748999, "price_max_raw": 989999, "sf_min": 2480, "sf_max": 3935, "price_range": "$748,999 – $989,999", "sf_range": "2,480 – 3,935 SF", "city": "Elk Grove", "county": "Sacramento", "state": "CA", "zip": 95757 }, "geometry": { "type": "Point", "coordinates": [ -121.3909, 38.3844 ] } },
{ "type": "Feature", "properties": { "builder": "Lennar", "community": "Shoreside at Westlake", "project_type": "Single Family", "status": "Active", "price_min_raw": 632140, "price_max_raw": 716487, "sf_min": 2127, "sf_max": 2776, "price_range": "$632,140 – $716,487", "sf_range": "2,127 – 2,776 SF", "city": "Stockton", "county": "San Joaquin", "state": "CA", "zip": 95219 }, "geometry": { "type": "Point", "coordinates": [ -121.3979, 38.049 ] } },
{ "type": "Feature", "properties": { "builder": "Signature Homes CA", "community": "Coronado at Delta Shores", "project_type": "Not Specified", "status": "Active", "price_min_raw": 718077, "price_max_raw": 784491, "sf_min": 2500, "sf_max": 2871, "price_range": "$718,077 – $784,491", "sf_range": "2,500 – 2,871 SF", "city": "Sacramento", "county": "Sacramento", "state": "CA", "zip": 95832 }, "geometry": { "type": "Point", "coordinates": [ -121.487118, 38.463431 ] } },
{ "type": "Feature", "properties": { "builder": "Toll Brothers", "community": "Regency at Folsom Ranch - Mendocino Collection", "project_type": "Single Family", "status": "Active", "price_min_raw": 712995, "price_max_raw": 728995, "sf_min": 1815, "sf_max": 1925, "price_range": "$712,995 – $728,995", "sf_range": "1,815 – 1,925 SF", "city": "Folsom", "county": "Sacramento", "state": "CA", "zip": 95630 }, "geometry": { "type": "Point", "coordinates": [ -121.115856, 38.626125 ] } },
{ "type": "Feature", "properties": { "builder": "Williams Homes", "community": "Sutter’s Ridge", "project_type": null, "status": "Active", "price_min_raw": 654140, "price_max_raw": 672445, "sf_min": 2782, "sf_max": 2884, "price_range": "$654,140 – $672,445", "sf_range": "2,782 – 2,884 SF", "city": "Placerville", "county": "El Dorado", "state": "CA", "zip": 95667 }, "geometry": { "type": "Point", "coordinates": [ -120.794232, 38.738141 ] } },
{ "type": "Feature", "properties": { "builder": "Tri Pointe Homes", "community": "Terrace Park", "project_type": "Single Family", "status": "Active", "price_min_raw": 578982, "price_max_raw": 606677, "sf_min": 1815, "sf_max": 2011, "price_range": "$578,982 – $606,677", "sf_range": "1,815 – 2,011 SF", "city": "Sacramento", "county": "Sacramento", "state": "CA", "zip": 95835 }, "geometry": { "type": "Point", "coordinates": [ -121.53594, 38.679013 ] } },
{ "type": "Feature", "properties": { "builder": "KB Home", "community": "Esquire at Folsom Ranch", "project_type": "Single Family", "status": "Active", "price_min_raw": 660990, "price_max_raw": 837586, "sf_min": 1652, "sf_max": 2777, "price_range": "$660,990 – $837,586", "sf_range": "1,652 – 2,777 SF", "city": "Folsom", "county": "Sacramento", "state": "CA", "zip": 95630 }, "geometry": { "type": "Point", "coordinates": [ -121.106633, 38.638461 ] } },
{ "type": "Feature", "properties": { "builder": "Lennar", "community": "Denali - Gilmore", "project_type": "Single Family", "status": "Active", "price_min_raw": 649880, "price_max_raw": 735880, "sf_min": 1927, "sf_max": 2877, "price_range": "$649,880 – $735,880", "sf_range": "1,927 – 2,877 SF", "city": "Manteca", "county": "San Joaquin", "state": "CA", "zip": 95337 }, "geometry": { "type": "Point", "coordinates": [ -121.2691, 37.7814 ] } },
{ "type": "Feature", "properties": { "builder": "Beazer Homes", "community": "Poppy Meadows - Primrose", "project_type": "Single Family", "status": "Active", "price_min_raw": 720990, "price_max_raw": 960990, "sf_min": 2038, "sf_max": 3101, "price_range": "$720,990 – $960,990", "sf_range": "2,038 – 3,101 SF", "city": "Elk Grove", "county": "Placer", "state": "CA", "zip": 95757 }, "geometry": { "type": "Point", "coordinates": [ -121.407002, 38.390538 ] } },
{ "type": "Feature", "properties": { "builder": "Pulte Homes", "community": "Willow at Oakwood Trails", "project_type": "Single Family", "status": "Active", "price_min_raw": 759990, "price_max_raw": 917715, "sf_min": 2503, "sf_max": 3732, "price_range": "$759,990 – $917,715", "sf_range": "2,503 – 3,732 SF", "city": "Manteca", "county": "San Joaquin", "state": "CA", "zip": 95337 }, "geometry": { "type": "Point", "coordinates": [ -121.280762, 37.779705 ] } },
{ "type": "Feature", "properties": { "builder": "Taylor Morrison", "community": "Anchor at Wildhawk South", "project_type": null, "status": "Active", "price_min_raw": 615999, "price_max_raw": 749999, "sf_min": 2262, "sf_max": 2921, "price_range": "$615,999 – $749,999", "sf_range": "2,262 – 2,921 SF", "city": "Sacramento", "county": "Sacramento", "state": "CA", "zip": 95829 }, "geometry": { "type": "Point", "coordinates": [ -121.318176, 38.476264 ] } },
{ "type": "Feature", "properties": { "builder": "Taylor Morrison", "community": "Madeira Greens", "project_type": null, "status": "Active", "price_min_raw": 660999, "price_max_raw": 884999, "sf_min": 1889, "sf_max": 3291, "price_range": "$660,999 – $884,999", "sf_range": "1,889 – 3,291 SF", "city": "Elk Grove", "county": "Sacramento", "state": "CA", "zip": 95757 }, "geometry": { "type": "Point", "coordinates": [ -121.409, 38.3796 ] } },
{ "type": "Feature", "properties": { "builder": "Lennar", "community": "Calabria at Vineyard Parke", "project_type": "Single Family", "status": "Active", "price_min_raw": 541990, "price_max_raw": 586990, "sf_min": 1228, "sf_max": 1900, "price_range": "$541,990 – $586,990", "sf_range": "1,228 – 1,900 SF", "city": "Sacramento", "county": "Sacramento", "state": "CA", "zip": 95829 }, "geometry": { "type": "Point", "coordinates": [ -121.3729, 38.4915 ] } },
{ "type": "Feature", "properties": { "builder": "KB Home", "community": "Copper Ridge", "project_type": "Single Family", "status": "Close Out", "price_min_raw": 640435, "price_max_raw": 847682, "sf_min": 1608, "sf_max": 2622, "price_range": "$640,435 – $847,682", "sf_range": "1,608 – 2,622 SF", "city": "Lincoln", "county": "Placer", "state": "CA", "zip": 95648 }, "geometry": null },
{ "type": "Feature", "properties": { "builder": "Next Generation Capital", "community": "Ventris Place", "project_type": "Not Specified", "status": "Grand Opening", "price_min_raw": 499000, "price_max_raw": 599990, "sf_min": 0, "sf_max": 1846, "price_range": "$499,000 – $599,990", "sf_range": "0 – 1,846 SF", "city": "Sacramento", "county": "Sacramento", "state": "CA", "zip": 95823 }, "geometry": { "type": "Point", "coordinates": [ -121.428964, 38.44456 ] } },
{ "type": "Feature", "properties": { "builder": "Taylor Morrison", "community": "Meridian at Wildhawk South", "project_type": null, "status": "Active", "price_min_raw": 615999, "price_max_raw": 793952, "sf_min": 2260, "sf_max": 3291, "price_range": "$615,999 – $793,952", "sf_range": "2,260 – 3,291 SF", "city": "Sacramento", "county": "Sacramento", "state": "CA", "zip": 95829 }, "geometry": { "type": "Point", "coordinates": [ -121.318176, 38.476264 ] } },
{ "type": "Feature", "properties": { "builder": "Richmond American Homes", "community": "Seasons at Montelena", "project_type": "Single Family", "status": "Active", "price_min_raw": 643329, "price_max_raw": 670137, "sf_min": 2370, "sf_max": 2650, "price_range": "$643,329 – $670,137", "sf_range": "2,370 – 2,650 SF", "city": "Rancho Cordova", "county": "Sacramento", "state": "CA", "zip": 95742 }, "geometry": { "type": "Point", "coordinates": [ -121.230639, 38.558639 ] } },
{ "type": "Feature", "properties": { "builder": "Beazer Homes", "community": "Arista", "project_type": "Single Family", "status": "Active", "price_min_raw": 579990, "price_max_raw": 780351, "sf_min": 1655, "sf_max": 2805, "price_range": "$579,990 – $780,351", "sf_range": "1,655 – 2,805 SF", "city": "Rancho Cordova", "county": "Sacramento", "state": "CA", "zip": 95742 }, "geometry": { "type": "Point", "coordinates": [ -121.192019, 38.545233 ] } },
{ "type": "Feature", "properties": { "builder": "Lennar", "community": "Breckenridge at Sierra West", "project_type": "Single Family", "status": "Active", "price_min_raw": 709844, "price_max_raw": 751201, "sf_min": 2309, "sf_max": 2793, "price_range": "$709,844 – $751,201", "sf_range": "2,309 – 2,793 SF", "city": "Roseville", "county": "Placer", "state": "CA", "zip": 95747 }, "geometry": { "type": "Point", "coordinates": [ -121.3904, 38.7571 ] } },
{ "type": "Feature", "properties": { "builder": "New Home Co.", "community": "Ridgeview", "project_type": "Not Specified", "status": "Active", "price_min_raw": 1377500, "price_max_raw": 1519258, "sf_min": 0, "sf_max": 4161, "price_range": "$1,377,500 – $1,519,258", "sf_range": "0 – 4,161 SF", "city": "El Dorado Hills", "county": "El Dorado", "state": "CA", "zip": 95762 }, "geometry": { "type": "Point", "coordinates": [ -121.095323, 38.678344 ] } },
{ "type": "Feature", "properties": { "builder": "Lennar", "community": "Lakeshore - Mezzano", "project_type": "Single Family", "status": "Active", "price_min_raw": 1028880, "price_max_raw": 1351880, "sf_min": 2258, "sf_max": 3324, "price_range": "$1,028,880 – $1,351,880", "sf_range": "2,258 – 3,324 SF", "city": "Mountain House", "county": "San Joaquin", "state": "CA", "zip": 95391 }, "geometry": { "type": "Point", "coordinates": [ -121.5344, 37.7924 ] } },
{ "type": "Feature", "properties": { "builder": "Richmond American Homes", "community": "Seasons at Stanford Crossing", "project_type": "Single Family", "status": "Close Out", "price_min_raw": 654950, "price_max_raw": 765000, "sf_min": 1410, "sf_max": 1870, "price_range": "$654,950 – $765,000", "sf_range": "1,410 – 1,870 SF", "city": "Lathrop", "county": "San Joaquin", "state": "CA", "zip": 95330 }, "geometry": { "type": "Point", "coordinates": [ -121.296674, 37.823404 ] } },
{ "type": "Feature", "properties": { "builder": "Lennar", "community": "Starling at Northpoint", "project_type": "Single Family", "status": "Active", "price_min_raw": 597091, "price_max_raw": 668996, "sf_min": 2421, "sf_max": 3427, "price_range": "$597,091 – $668,996", "sf_range": "2,421 – 3,427 SF", "city": "Plumas Lake", "county": "Yuba", "state": "CA", "zip": 95961 }, "geometry": { "type": "Point", "coordinates": [ -121.5415, 38.995 ] } },
{ "type": "Feature", "properties": { "builder": "Toll Brothers", "community": "Ridgeline at Bickford by Toll Brothers", "project_type": "Single Family", "status": "Active", "price_min_raw": 1050995, "price_max_raw": 1488995, "sf_min": 3153, "sf_max": 4142, "price_range": "$1,050,995 – $1,488,995", "sf_range": "3,153 – 4,142 SF", "city": "Lincoln", "county": "Placer", "state": "CA", "zip": 95648 }, "geometry": { "type": "Point", "coordinates": [ -121.22102, 38.87054 ] } },
{ "type": "Feature", "properties": { "builder": "Taylor Morrison", "community": "Esplanade at Turkey Creek", "project_type": null, "status": "Active", "price_min_raw": 500999, "price_max_raw": 1060257, "sf_min": 1408, "sf_max": 2985, "price_range": "$500,999 – $1,060,257", "sf_range": "1,408 – 2,985 SF", "city": "Lincoln", "county": "Placer", "state": "CA", "zip": 95648 }, "geometry": { "type": "Point", "coordinates": [ -121.274977, 38.892883 ] } },
{ "type": "Feature", "properties": { "builder": "Van Daele Homes", "community": "Westwind at River Islands", "project_type": "Not Specified", "status": "Active", "price_min_raw": 689990, "price_max_raw": 797990, "sf_min": 1896, "sf_max": 2664, "price_range": "$689,990 – $797,990", "sf_range": "1,896 – 2,664 SF", "city": "Lathrop", "county": "San Joaquin", "state": "CA", "zip": 95330 }, "geometry": { "type": "Point", "coordinates": [ -121.296967, 37.813422 ] } },
{ "type": "Feature", "properties": { "builder": "Shea Homes-Trilogy", "community": "Trilogy Bickford", "project_type": "Single Family", "status": "Active", "price_min_raw": 507999, "price_max_raw": 975999, "sf_min": 1448, "sf_max": 2850, "price_range": "$507,999 – $975,999", "sf_range": "1,448 – 2,850 SF", "city": "Lincoln", "county": "Placer", "state": "CA", "zip": 95648 }, "geometry": { "type": "Point", "coordinates": [ -121.215888, 38.868431 ] } },
{ "type": "Feature", "properties": { "builder": "Lennar", "community": "Northlake - Drifton", "project_type": "Single Family", "status": "Active", "price_min_raw": 728486, "price_max_raw": 964537, "sf_min": 2282, "sf_max": 3410, "price_range": "$728,486 – $964,537", "sf_range": "2,282 – 3,410 SF", "city": "Sacramento", "county": "Sacramento", "state": "CA", "zip": 95835 }, "geometry": { "type": "Point", "coordinates": [ -121.5485, 38.6774 ] } },
{ "type": "Feature", "properties": { "builder": "Elliott Homes", "community": "Manzanita at Saratoga", "project_type": "Single Family", "status": "Active", "price_min_raw": 899950, "price_max_raw": 1086940, "sf_min": 2296, "sf_max": 3367, "price_range": "$899,950 – $1,086,940", "sf_range": "2,296 – 3,367 SF", "city": "El Dorado Hills", "county": "El Dorado", "state": "CA", "zip": 95762 }, "geometry": { "type": "Point", "coordinates": [ -121.083729, 38.653331 ] } },
{ "type": "Feature", "properties": { "builder": "Tri Pointe Homes", "community": "Jubilee at Independence", "project_type": "Single Family", "status": "Active", "price_min_raw": 565443, "price_max_raw": 642224, "sf_min": 1752, "sf_max": 2129, "price_range": "$565,443 – $642,224", "sf_range": "1,752 – 2,129 SF", "city": "Lincoln", "county": "Placer", "state": "CA", "zip": 95648 }, "geometry": { "type": "Point", "coordinates": [ -121.350282, 38.893186 ] } },
{ "type": "Feature", "properties": { "builder": "Richmond American Homes", "community": "Seasons at Villa Ticino", "project_type": "Single Family", "status": "Active", "price_min_raw": 676683, "price_max_raw": 743042, "sf_min": 1660, "sf_max": 2660, "price_range": "$676,683 – $743,042", "sf_range": "1,660 – 2,660 SF", "city": "Manteca", "county": "San Joaquin", "state": "CA", "zip": 95337 }, "geometry": { "type": "Point", "coordinates": [ -121.260025, 37.811445 ] } },
{ "type": "Feature", "properties": { "builder": "Richmond American Homes", "community": "Seasons at Riverton North", "project_type": "Single Family", "status": "Active", "price_min_raw": 530950, "price_max_raw": 599244, "sf_min": 2110, "sf_max": 3040, "price_range": "$530,950 – $599,244", "sf_range": "2,110 – 3,040 SF", "city": "Plumas Lake", "county": "Yuba", "state": "CA", "zip": 95961 }, "geometry": { "type": "Point", "coordinates": [ -121.556698, 39.002797 ] } },
{ "type": "Feature", "properties": { "builder": "Lennar", "community": "Creekside - Banbury Park", "project_type": "Single Family", "status": "Active", "price_min_raw": 799880, "price_max_raw": 1080622, "sf_min": 1915, "sf_max": 2628, "price_range": "$799,880 – $1,080,622", "sf_range": "1,915 – 2,628 SF", "city": "Mountain House", "county": "San Joaquin", "state": "CA", "zip": 95391 }, "geometry": { "type": "Point", "coordinates": [ -121.5425, 37.7839 ] } },
{ "type": "Feature", "properties": { "builder": "Brookfield Residential", "community": "Tesoro Neighborhood At Amoruso Ranch", "project_type": "Single Family", "status": "Active", "price_min_raw": 727640, "price_max_raw": 957090, "sf_min": 2339, "sf_max": 4066, "price_range": "$727,640 – $957,090", "sf_range": "2,339 – 4,066 SF", "city": "Roseville", "county": "Placer", "state": "CA", "zip": 95747 }, "geometry": { "type": "Point", "coordinates": [ -121.3867, 38.8164 ] } },
{ "type": "Feature", "properties": { "builder": "Lennar", "community": "Lazio | Active Adult 55+", "project_type": "Single Family", "status": "Active", "price_min_raw": 551990, "price_max_raw": 721262, "sf_min": 1903, "sf_max": 2423, "price_range": "$551,990 – $721,262", "sf_range": "1,903 – 2,423 SF", "city": "Roseville", "county": "Placer", "state": "CA", "zip": 95747 }, "geometry": { "type": "Point", "coordinates": [ -121.3726, 38.7496 ] } },
{ "type": "Feature", "properties": { "builder": "Taylor Morrison", "community": "Legends at Folsom Ranch", "project_type": null, "status": "Active", "price_min_raw": 708999, "price_max_raw": 854999, "sf_min": 1891, "sf_max": 3056, "price_range": "$708,999 – $854,999", "sf_range": "1,891 – 3,056 SF", "city": "Folsom", "county": "Sacramento", "state": "CA", "zip": 95630 }, "geometry": { "type": "Point", "coordinates": [ -121.117984, 38.632135 ] } },
{ "type": "Feature", "properties": { "builder": "KB Home", "community": "Enclave at Crossroads West", "project_type": "Single Family", "status": "Active", "price_min_raw": 513990, "price_max_raw": 629990, "sf_min": 1469, "sf_max": 2300, "price_range": "$513,990 – $629,990", "sf_range": "1,469 – 2,300 SF", "city": "Riverbank", "county": "Stanislaus", "state": "CA", "zip": 95367 }, "geometry": { "type": "Point", "coordinates": [ -120.961432, 37.717675 ] } },
{ "type": "Feature", "properties": { "builder": "Tri Pointe Homes", "community": "Mountaingate at Bickford", "project_type": "Single Family", "status": "Active", "price_min_raw": 849607, "price_max_raw": 1027112, "sf_min": 2887, "sf_max": 3743, "price_range": "$849,607 – $1,027,112", "sf_range": "2,887 – 3,743 SF", "city": "Lincoln", "county": "Placer", "state": "CA", "zip": 95648 }, "geometry": { "type": "Point", "coordinates": [ -121.224656, 38.868635 ] } },
{ "type": "Feature", "properties": { "builder": "Elliott Homes", "community": "Heritage at Gum Ranch", "project_type": "Single Family", "status": "Active", "price_min_raw": 762950, "price_max_raw": 962950, "sf_min": 2201, "sf_max": 3660, "price_range": "$762,950 – $962,950", "sf_range": "2,201 – 3,660 SF", "city": "Fair Oaks", "county": "Sacramento", "state": "CA", "zip": 95628 }, "geometry": { "type": "Point", "coordinates": [ -121.247088, 38.667036 ] } },
{ "type": "Feature", "properties": { "builder": "Lennar", "community": "Emilia | Active Adult 55+", "project_type": "Single Family", "status": "Active", "price_min_raw": 720652, "price_max_raw": 835511, "sf_min": 2400, "sf_max": 2993, "price_range": "$720,652 – $835,511", "sf_range": "2,400 – 2,993 SF", "city": "Roseville", "county": "Placer", "state": "CA", "zip": 95747 }, "geometry": { "type": "Point", "coordinates": [ -121.3726, 38.7496 ] } },
{ "type": "Feature", "properties": { "builder": "Pulte Homes", "community": "Solis at Montelena", "project_type": "Single Family", "status": "Active", "price_min_raw": 654990, "price_max_raw": 684990, "sf_min": 2817, "sf_max": 3176, "price_range": "$654,990 – $684,990", "sf_range": "2,817 – 3,176 SF", "city": "Rancho Cordova", "county": "Sacramento", "state": "CA", "zip": 95742 }, "geometry": { "type": "Point", "coordinates": [ -121.226072, 38.555629 ] } },
{ "type": "Feature", "properties": { "builder": "Tri Pointe Homes", "community": "Chantara at River Islands", "project_type": "Single Family", "status": "Active", "price_min_raw": 758900, "price_max_raw": 894900, "sf_min": 2373, "sf_max": 2842, "price_range": "$758,900 – $894,900", "sf_range": "2,373 – 2,842 SF", "city": "Lathrop", "county": "San Joaquin", "state": "CA", "zip": 95330 }, "geometry": { "type": "Point", "coordinates": [ -121.346893, 37.806912 ] } },
{ "type": "Feature", "properties": { "builder": "Cresleigh Homes", "community": "Cresleigh Bluffs at Plumas Ranch", "project_type": "Not Specified", "status": "Active", "price_min_raw": 443000, "price_max_raw": 565052, "sf_min": 0, "sf_max": 2471, "price_range": "$443,000 – $565,052", "sf_range": "0 – 2,471 SF", "city": "Plumas Lake", "county": "Yuba", "state": "CA", "zip": 95961 }, "geometry": { "type": "Point", "coordinates": [ -121.546178, 38.977034 ] } },
{ "type": "Feature", "properties": { "builder": "Premier Homes CA", "community": "Premier Soleil Granite Bay", "project_type": "Not Specified", "status": "Active", "price_min_raw": 838000, "price_max_raw": 1110500, "sf_min": 1719, "sf_max": 3167, "price_range": "$838,000 – $1,110,500", "sf_range": "1,719 – 3,167 SF", "city": "Granite Bay", "county": "Placer", "state": "CA", "zip": 95746 }, "geometry": { "type": "Point", "coordinates": [ -121.16822, 38.74401 ] } },
{ "type": "Feature", "properties": { "builder": "Century Communities", "community": "Park Place", "project_type": null, "status": "Active", "price_min_raw": 488990, "price_max_raw": 518205, "sf_min": 1518, "sf_max": 1945, "price_range": "$488,990 – $518,205", "sf_range": "1,518 – 1,945 SF", "city": "Sacramento", "county": "Sacramento", "state": "CA", "zip": 95824 }, "geometry": { "type": "Point", "coordinates": [ -121.442879, 38.512715 ] } },
{ "type": "Feature", "properties": { "builder": "KB Home", "community": "Sycamore at Patterson Ranch", "project_type": "Single Family", "status": "Close Out", "price_min_raw": 482990, "price_max_raw": 535990, "sf_min": 2008, "sf_max": 2665, "price_range": "$482,990 – $535,990", "sf_range": "2,008 – 2,665 SF", "city": "Patterson", "county": "Stanislaus", "state": "CA", "zip": 95363 }, "geometry": { "type": "Point", "coordinates": [ -121.122362, 37.488432 ] } },
{ "type": "Feature", "properties": { "builder": "Toll Brothers", "community": "Regency at Tracy Lakes - Laguna Collection", "project_type": "Single Family", "status": "Active", "price_min_raw": 702995, "price_max_raw": 732995, "sf_min": 1768, "sf_max": 1880, "price_range": "$702,995 – $732,995", "sf_range": "1,768 – 1,880 SF", "city": "Tracy", "county": "San Joaquin", "state": "CA", "zip": 95377 }, "geometry": { "type": "Point", "coordinates": [ -121.44596, 37.709172 ] } },
{ "type": "Feature", "properties": { "builder": "Lennar", "community": "Northlake - Watersyde", "project_type": "Single Family", "status": "Active", "price_min_raw": 694200, "price_max_raw": 883990, "sf_min": 2309, "sf_max": 2966, "price_range": "$694,200 – $883,990", "sf_range": "2,309 – 2,966 SF", "city": "Sacramento", "county": "Sacramento", "state": "CA", "zip": 95835 }, "geometry": { "type": "Point", "coordinates": [ -121.5485, 38.6774 ] } },
{ "type": "Feature", "properties": { "builder": "Landsea Homes", "community": "Blossom at Baldwin Ranch", "project_type": "Single Family", "status": "Active", "price_min_raw": 531091, "price_max_raw": 531091, "sf_min": 1867, "sf_max": 1867, "price_range": "$0 – $531,091", "sf_range": "0 – 1,867 SF", "city": "Patterson", "county": "Stanislaus", "state": "CA", "zip": 95363 }, "geometry": { "type": "Point", "coordinates": [ -121.163303, 37.459419 ] } },
{ "type": "Feature", "properties": { "builder": "Meritage Homes", "community": "Monument at Liberty Ranch", "project_type": "Single Family", "status": "Active", "price_min_raw": 673472, "price_max_raw": 716845, "sf_min": 2365, "sf_max": 2896, "price_range": "$673,472 – $716,845", "sf_range": "2,365 – 2,896 SF", "city": "Lincoln", "county": "Sacramento", "state": "CA", "zip": 95648 }, "geometry": { "type": "Point", "coordinates": [ -121.278934, 38.281258 ] } },
{ "type": "Feature", "properties": { "builder": "K. Hovnanian® Homes", "community": "Sonterra", "project_type": "Single Family", "status": "Active", "price_min_raw": 685990, "price_max_raw": 818596, "sf_min": 2558, "sf_max": 3124, "price_range": "$685,990 – $818,596", "sf_range": "2,558 – 3,124 SF", "city": "Lodi", "county": "San Joaquin", "state": "CA", "zip": 95240 }, "geometry": { "type": "Point", "coordinates": [ -121.102294, 38.148482 ] } },
{ "type": "Feature", "properties": { "builder": "Toll Brothers", "community": "Regency at Folsom Ranch - Sequoia Collection", "project_type": "Single Family", "status": "Active", "price_min_raw": 553995, "price_max_raw": 568995, "sf_min": 1398, "sf_max": 1446, "price_range": "$553,995 – $568,995", "sf_range": "1,398 – 1,446 SF", "city": "Folsom", "county": "Sacramento", "state": "CA", "zip": 95630 }, "geometry": { "type": "Point", "coordinates": [ -121.116856, 38.625125 ] } },
{ "type": "Feature", "properties": { "builder": "Woodside Homes", "community": "Valley Oak at Cypress", "project_type": "Single Family", "status": "Active", "price_min_raw": 590990, "price_max_raw": 669990, "sf_min": 1868, "sf_max": 2433, "price_range": "$590,990 – $669,990", "sf_range": "1,868 – 2,433 SF", "city": "Rancho Cordova", "county": "Sacramento", "state": "CA", "zip": 95742 }, "geometry": { "type": "Point", "coordinates": [ -121.196528, 38.545305 ] } },
{ "type": "Feature", "properties": { "builder": "LGI Homes", "community": "Dantoni Ranch", "project_type": "Not Specified", "status": "Active", "price_min_raw": 426900, "price_max_raw": 553900, "sf_min": 1108, "sf_max": 2213, "price_range": "$426,900 – $553,900", "sf_range": "1,108 – 2,213 SF", "city": "Linda", "county": "Yuba", "state": "CA", "zip": 95901 }, "geometry": { "type": "Point", "coordinates": [ -121.538762, 39.135919 ] } },
{ "type": "Feature", "properties": { "builder": "Century Communities", "community": "Millau Collection", "project_type": null, "status": "Active", "price_min_raw": 0, "price_max_raw": 634310, "sf_min": 1518, "sf_max": 2151, "price_range": "$0 – $634,310", "sf_range": "1,518 – 2,151 SF", "city": "Lincoln", "county": "Placer", "state": "CA", "zip": 95648 }, "geometry": { "type": "Point", "coordinates": [ -121.295461, 38.858444 ] } },
{ "type": "Feature", "properties": { "builder": "KB Home", "community": "Heritage at Parkwood", "project_type": "Single Family", "status": "Active", "price_min_raw": 542990, "price_max_raw": 586990, "sf_min": 2143, "sf_max": 2768, "price_range": "$542,990 – $586,990", "sf_range": "2,143 – 2,768 SF", "city": "Hughson", "county": "Stanislaus", "state": "CA", "zip": 95326 }, "geometry": { "type": "Point", "coordinates": [ -120.880944, 37.606197 ] } },
{ "type": "Feature", "properties": { "builder": "Lennar", "community": "Skylark at Northpoint", "project_type": "Single Family", "status": "Active", "price_min_raw": 551590, "price_max_raw": 599090, "sf_min": 1879, "sf_max": 2623, "price_range": "$551,590 – $599,090", "sf_range": "1,879 – 2,623 SF", "city": "Plumas Lake", "county": "Yuba", "state": "CA", "zip": 95961 }, "geometry": { "type": "Point", "coordinates": [ -121.5415, 38.995 ] } },
{ "type": "Feature", "properties": { "builder": "Lennar", "community": "Azure at The Preserve", "project_type": "Single Family", "status": "Active", "price_min_raw": 622990, "price_max_raw": 706990, "sf_min": 1873, "sf_max": 2612, "price_range": "$622,990 – $706,990", "sf_range": "1,873 – 2,612 SF", "city": "Rancho Cordova", "county": "Sacramento", "state": "CA", "zip": 95742 }, "geometry": { "type": "Point", "coordinates": [ -121.2023, 38.5419 ] } },
{ "type": "Feature", "properties": { "builder": "Lennar", "community": "Tracy Hills - Fairgrove", "project_type": "Single Family", "status": "Active", "price_min_raw": 681213, "price_max_raw": 798880, "sf_min": 1945, "sf_max": 2416, "price_range": "$681,213 – $798,880", "sf_range": "1,945 – 2,416 SF", "city": "Tracy", "county": "San Joaquin", "state": "CA", "zip": 95377 }, "geometry": { "type": "Point", "coordinates": [ -121.4835, 37.6912 ] } },
{ "type": "Feature", "properties": { "builder": "K. Hovnanian® Homes", "community": "Mariposa", "project_type": "Single Family", "status": "Active", "price_min_raw": 828740, "price_max_raw": 871440, "sf_min": 2274, "sf_max": 3244, "price_range": "$828,740 – $871,440", "sf_range": "2,274 – 3,244 SF", "city": "Lathrop", "county": "San Joaquin", "state": "CA", "zip": 95330 }, "geometry": { "type": "Point", "coordinates": [ -121.306065, 37.799879 ] } },
{ "type": "Feature", "properties": { "builder": "Lennar", "community": "The Keys II at Westlake", "project_type": "Single Family", "status": "Active", "price_min_raw": 570990, "price_max_raw": 671990, "sf_min": 2166, "sf_max": 3161, "price_range": "$570,990 – $671,990", "sf_range": "2,166 – 3,161 SF", "city": "Stockton", "county": "San Joaquin", "state": "CA", "zip": 95219 }, "geometry": { "type": "Point", "coordinates": [ -121.3979, 38.049 ] } },
{ "type": "Feature", "properties": { "builder": "Lennar", "community": "Harmony at Arbor Ranch", "project_type": "Single Family", "status": "Active", "price_min_raw": 588990, "price_max_raw": 665490, "sf_min": 1579, "sf_max": 2179, "price_range": "$588,990 – $665,490", "sf_range": "1,579 – 2,179 SF", "city": "Elk Grove", "county": "Sacramento", "state": "CA", "zip": 95624 }, "geometry": { "type": "Point", "coordinates": [ -121.3729, 38.4915 ] } },
{ "type": "Feature", "properties": { "builder": "Pulte Homes", "community": "Amber at Oakwood Trails", "project_type": "Single Family", "status": "Active", "price_min_raw": 644990, "price_max_raw": 694990, "sf_min": 1788, "sf_max": 2463, "price_range": "$644,990 – $694,990", "sf_range": "1,788 – 2,463 SF", "city": "Manteca", "county": "San Joaquin", "state": "CA", "zip": 95337 }, "geometry": { "type": "Point", "coordinates": [ -121.278046, 37.77967 ] } },
{ "type": "Feature", "properties": { "builder": "Meritage Homes", "community": "Alder Grove", "project_type": "Single Family", "status": "Active", "price_min_raw": 641950, "price_max_raw": 803737, "sf_min": 1733, "sf_max": 2940, "price_range": "$641,950 – $803,737", "sf_range": "1,733 – 2,940 SF", "city": "Manteca", "county": "San Joaquin", "state": "CA", "zip": 95337 }, "geometry": { "type": "Point", "coordinates": [ -121.269043, 37.77712 ] } },
{ "type": "Feature", "properties": { "builder": "LGI Homes", "community": "Diamond Bar East", "project_type": "Not Specified", "status": "Active", "price_min_raw": 449900, "price_max_raw": 633900, "sf_min": 1104, "sf_max": 2208, "price_range": "$449,900 – $633,900", "sf_range": "1,104 – 2,208 SF", "city": "Riverbank", "county": "Stanislaus", "state": "CA", "zip": 95367 }, "geometry": { "type": "Point", "coordinates": [ -120.915713, 37.735258 ] } },
{ "type": "Feature", "properties": { "builder": "Elliott Homes", "community": "Turkey Creek Estates", "project_type": "Single Family", "status": "Active", "price_min_raw": 928950, "price_max_raw": 1225060, "sf_min": 2360, "sf_max": 4137, "price_range": "$928,950 – $1,225,060", "sf_range": "2,360 – 4,137 SF", "city": "Lincoln", "county": "Placer", "state": "CA", "zip": 95648 }, "geometry": { "type": "Point", "coordinates": [ -121.254304, 38.890832 ] } },
{ "type": "Feature", "properties": { "builder": "KB Home", "community": "Highland at The Grove", "project_type": "Single Family", "status": "Active", "price_min_raw": 589990, "price_max_raw": 638990, "sf_min": 1429, "sf_max": 1824, "price_range": "$589,990 – $638,990", "sf_range": "1,429 – 1,824 SF", "city": "Elk Grove", "county": "Sacramento", "state": "CA", "zip": 95757 }, "geometry": { "type": "Point", "coordinates": [ -121.39497, 38.38869 ] } },
{ "type": "Feature", "properties": { "builder": "KB Home", "community": "Hamilton Park", "project_type": "Single Family", "status": "Active", "price_min_raw": 501990, "price_max_raw": 628043, "sf_min": 1400, "sf_max": 2111, "price_range": "$501,990 – $628,043", "sf_range": "1,400 – 2,111 SF", "city": "Elk Grove", "county": "Sacramento", "state": "CA", "zip": 95624 }, "geometry": { "type": "Point", "coordinates": [ -121.372513, 38.435998 ] } },
{ "type": "Feature", "properties": { "builder": "Florsheim Homes", "community": "Calaveras Place", "project_type": "Not Specified", "status": "Active", "price_min_raw": 469990, "price_max_raw": 509990, "sf_min": 1622, "sf_max": 2114, "price_range": "$469,990 – $509,990", "sf_range": "1,622 – 2,114 SF", "city": "Stockton", "county": "San Joaquin", "state": "CA", "zip": 95204 }, "geometry": { "type": "Point", "coordinates": [ -121.29222, 37.991058 ] } },
{ "type": "Feature", "properties": { "builder": "Meritage Homes", "community": "Aspen at Villa Ticino", "project_type": "Single Family", "status": "Active", "price_min_raw": 701697, "price_max_raw": 806210, "sf_min": 2047, "sf_max": 3153, "price_range": "$701,697 – $806,210", "sf_range": "2,047 – 3,153 SF", "city": "Manteca", "county": "San Joaquin", "state": "CA", "zip": 95337 }, "geometry": { "type": "Point", "coordinates": [ -121.255818, 37.802766 ] } },
{ "type": "Feature", "properties": { "builder": "Century Communities", "community": "Villa Bellissima", "project_type": null, "status": "Active", "price_min_raw": 0, "price_max_raw": 869745, "sf_min": 2091, "sf_max": 3420, "price_range": "$0 – $869,745", "sf_range": "2,091 – 3,420 SF", "city": "Manteca", "county": "San Joaquin", "state": "CA", "zip": 95337 }, "geometry": { "type": "Point", "coordinates": [ -121.255574, 37.806874 ] } },
{ "type": "Feature", "properties": { "builder": "Pulte Homes", "community": "Jasmine at Solaire", "project_type": "Single Family", "status": "Active", "price_min_raw": 609990, "price_max_raw": 769840, "sf_min": 1788, "sf_max": 3024, "price_range": "$609,990 – $769,840", "sf_range": "1,788 – 3,024 SF", "city": "Roseville", "county": "Placer", "state": "CA", "zip": 95747 }, "geometry": { "type": "Point", "coordinates": [ -121.378863, 38.76501 ] } },
{ "type": "Feature", "properties": { "builder": "KB Home", "community": "Terra at Villa Ticino", "project_type": "Single Family", "status": "Active", "price_min_raw": 557990, "price_max_raw": 653990, "sf_min": 1474, "sf_max": 2378, "price_range": "$557,990 – $653,990", "sf_range": "1,474 – 2,378 SF", "city": "Manteca", "county": "San Joaquin", "state": "CA", "zip": 95337 }, "geometry": { "type": "Point", "coordinates": [ -121.257536, 37.806815 ] } },
{ "type": "Feature", "properties": { "builder": "Tri Pointe Homes", "community": "Sendero at Folsom Ranch", "project_type": "Single Family", "status": "Coming Soon", "price_min_raw": 0, "price_max_raw": 0, "sf_min": 1566, "sf_max": 1870, "price_range": "$0 – $0", "sf_range": "1,566 – 1,870 SF", "city": "Folsom", "county": "Sacramento", "state": "CA", "zip": 95630 }, "geometry": { "type": "Point", "coordinates": [ -121.108639, 38.62418 ] } },
{ "type": "Feature", "properties": { "builder": "Pulte Homes", "community": "Lilac at Oakwood Trails", "project_type": "Single Family", "status": "Active", "price_min_raw": 704990, "price_max_raw": 801201, "sf_min": 2178, "sf_max": 3159, "price_range": "$704,990 – $801,201", "sf_range": "2,178 – 3,159 SF", "city": "Manteca", "county": "San Joaquin", "state": "CA", "zip": 95337 }, "geometry": { "type": "Point", "coordinates": [ -121.275011, 37.779129 ] } },
{ "type": "Feature", "properties": { "builder": "KB Home", "community": "Acacia II at Patterson Ranch", "project_type": null, "status": "Active", "price_min_raw": 445990, "price_max_raw": 507990, "sf_min": 1593, "sf_max": 2251, "price_range": "$445,990 – $507,990", "sf_range": "1,593 – 2,251 SF", "city": "Patterson", "county": "Stanislaus", "state": "CA", "zip": 95363 }, "geometry": { "type": "Point", "coordinates": [ -121.1184, 37.487056 ] } },
{ "type": "Feature", "properties": { "builder": "Signature Homes CA", "community": "Lumina at Reynolds Ranch", "project_type": "Not Specified", "status": "Active", "price_min_raw": 624862, "price_max_raw": 829361, "sf_min": 2046, "sf_max": 3149, "price_range": "$624,862 – $829,361", "sf_range": "2,046 – 3,149 SF", "city": "Lodi", "county": "San Joaquin", "state": "CA", "zip": 95240 }, "geometry": { "type": "Point", "coordinates": [ -121.269741, 38.09804 ] } },
{ "type": "Feature", "properties": { "builder": "Taylor Morrison", "community": "Latitude at Wildhawk South", "project_type": null, "status": "Active", "price_min_raw": 684999, "price_max_raw": 844310, "sf_min": 2504, "sf_max": 3867, "price_range": "$684,999 – $844,310", "sf_range": "2,504 – 3,867 SF", "city": "Sacramento", "county": "Sacramento", "state": "CA", "zip": 95829 }, "geometry": { "type": "Point", "coordinates": [ -121.318176, 38.476264 ] } },
{ "type": "Feature", "properties": { "builder": "Kiper Homes", "community": "Serena at River Islands", "project_type": "Not Specified", "status": "Grand Opening", "price_min_raw": 825900, "price_max_raw": 929900, "sf_min": 2594, "sf_max": 3359, "price_range": "$825,900 – $929,900", "sf_range": "2,594 – 3,359 SF", "city": "Lathrop", "county": "San Joaquin", "state": "CA", "zip": 95330 }, "geometry": { "type": "Point", "coordinates": [ -121.356268, 37.802791 ] } },
{ "type": "Feature", "properties": { "builder": "Tim Lewis Communities", "community": "Zinfandel Ridge II", "project_type": "Not Specified", "status": "Active", "price_min_raw": 825900, "price_max_raw": 999900, "sf_min": 2286, "sf_max": 3249, "price_range": "$825,900 – $999,900", "sf_range": "2,286 – 3,249 SF", "city": "Plymouth", "county": "Amador", "state": "CA", "zip": 95669 }, "geometry": { "type": "Point", "coordinates": [ -120.864447, 38.46908 ] } },
{ "type": "Feature", "properties": { "builder": "Meritage Homes", "community": "Vernon at Liberty Ranch", "project_type": "Single Family", "status": "Active", "price_min_raw": 657490, "price_max_raw": 724990, "sf_min": 2339, "sf_max": 2916, "price_range": "$657,490 – $724,990", "sf_range": "2,339 – 2,916 SF", "city": "Galt", "county": "Sacramento", "state": "CA", "zip": 95632 }, "geometry": { "type": "Point", "coordinates": [ -121.277209, 38.279361 ] } },
{ "type": "Feature", "properties": { "builder": "Lennar", "community": "Northlake - Wavmor", "project_type": "Single Family", "status": "Active", "price_min_raw": 676990, "price_max_raw": 824490, "sf_min": 2127, "sf_max": 2776, "price_range": "$676,990 – $824,490", "sf_range": "2,127 – 2,776 SF", "city": "Sacramento", "county": "Sacramento", "state": "CA", "zip": 95835 }, "geometry": { "type": "Point", "coordinates": [ -121.5485, 38.6774 ] } },
{ "type": "Feature", "properties": { "builder": "Taylor Morrison", "community": "Poppy at Oakwood Trails", "project_type": "Single Family", "status": "Active", "price_min_raw": 790000, "price_max_raw": 929045, "sf_min": 2494, "sf_max": 3551, "price_range": "$790,000 – $929,045", "sf_range": "2,494 – 3,551 SF", "city": "Manteca", "county": "San Joaquin", "state": "CA", "zip": 95337 }, "geometry": { "type": "Point", "coordinates": [ -121.271256, 37.775953 ] } },
{ "type": "Feature", "properties": { "builder": "Lennar", "community": "Lakeside at Westlake", "project_type": "Single Family", "status": "Active", "price_min_raw": 664861, "price_max_raw": 830678, "sf_min": 2355, "sf_max": 3647, "price_range": "$664,861 – $830,678", "sf_range": "2,355 – 3,647 SF", "city": "Empire", "county": "Stanislaus", "state": "CA", "zip": 95319 }, "geometry": { "type": "Point", "coordinates": [ -121.3979, 38.049 ] } },
{ "type": "Feature", "properties": { "builder": "Lennar", "community": "Northlake - Crestvue", "project_type": "Single Family", "status": "Active", "price_min_raw": 638687, "price_max_raw": 808490, "sf_min": 1789, "sf_max": 3178, "price_range": "$638,687 – $808,490", "sf_range": "1,789 – 3,178 SF", "city": "Sacramento", "county": "Sacramento", "state": "CA", "zip": 95835 }, "geometry": { "type": "Point", "coordinates": [ -121.5485, 38.6774 ] } },
{ "type": "Feature", "properties": { "builder": "Del Webb", "community": "Del Webb at River Islands", "project_type": "Single Family", "status": "Active", "price_min_raw": 499990, "price_max_raw": 948847, "sf_min": 1451, "sf_max": 2743, "price_range": "$499,990 – $948,847", "sf_range": "1,451 – 2,743 SF", "city": "Lathrop", "county": "San Joaquin", "state": "CA", "zip": 95330 }, "geometry": { "type": "Point", "coordinates": [ -121.350807, 37.801561 ] } },
{ "type": "Feature", "properties": { "builder": "Lennar", "community": "Waterways at Westlake", "project_type": "Single Family", "status": "Active", "price_min_raw": 532990, "price_max_raw": 652990, "sf_min": 1579, "sf_max": 2528, "price_range": "$532,990 – $652,990", "sf_range": "1,579 – 2,528 SF", "city": "Stockton", "county": "Stanislaus", "state": "CA", "zip": 95219 }, "geometry": { "type": "Point", "coordinates": [ -121.407, 38.0499 ] } },
{ "type": "Feature", "properties": { "builder": "Lennar", "community": "Heritage Carson Creek | Active Adult", "project_type": "Single Family", "status": "Active", "price_min_raw": 581122, "price_max_raw": 621560, "sf_min": 1497, "sf_max": 1779, "price_range": "$581,122 – $621,560", "sf_range": "1,497 – 1,779 SF", "city": "El Dorado Hills", "county": "El Dorado", "state": "CA", "zip": 95762 }, "geometry": { "type": "Point", "coordinates": [ -121.0596, 38.6182 ] } },
{ "type": "Feature", "properties": { "builder": "KB Home", "community": "Riva at Delta Shores", "project_type": "Single Family", "status": "Active", "price_min_raw": 529990, "price_max_raw": 612222, "sf_min": 1795, "sf_max": 2236, "price_range": "$529,990 – $612,222", "sf_range": "1,795 – 2,236 SF", "city": "Sacramento", "county": "Sacramento", "state": "CA", "zip": 95832 }, "geometry": { "type": "Point", "coordinates": [ -121.497205, 38.463789 ] } },
{ "type": "Feature", "properties": { "builder": "Woodside Homes", "community": "Palo Verde at Cypress", "project_type": "Single Family", "status": "Active", "price_min_raw": 539990, "price_max_raw": 666727, "sf_min": 1665, "sf_max": 2349, "price_range": "$539,990 – $666,727", "sf_range": "1,665 – 2,349 SF", "city": "Rancho Cordova", "county": "Sacramento", "state": "CA", "zip": 95742 }, "geometry": { "type": "Point", "coordinates": [ -121.197687, 38.545373 ] } },
{ "type": "Feature", "properties": { "builder": "Toll Brothers", "community": "Preserve at Folsom Ranch - Oak Trails", "project_type": "Single Family", "status": "Active", "price_min_raw": 906995, "price_max_raw": 1032995, "sf_min": 2940, "sf_max": 3369, "price_range": "$906,995 – $1,032,995", "sf_range": "2,940 – 3,369 SF", "city": "Folsom", "county": "Sacramento", "state": "CA", "zip": 95630 }, "geometry": { "type": "Point", "coordinates": [ -121.134098, 38.621041 ] } },
{ "type": "Feature", "properties": { "builder": "Elliott Homes", "community": "Cascade at Elliott Springs", "project_type": "Single Family", "status": "Active", "price_min_raw": 729950, "price_max_raw": 929950, "sf_min": 1945, "sf_max": 3372, "price_range": "$729,950 – $929,950", "sf_range": "1,945 – 3,372 SF", "city": "Elk Grove", "county": "Sacramento", "state": "CA", "zip": 95624 }, "geometry": { "type": "Point", "coordinates": [ -121.359175, 38.427424 ] } },
{ "type": "Feature", "properties": { "builder": "Pulte Homes", "community": "Cypress at Avina", "project_type": "Single Family", "status": "Grand Opening", "price_min_raw": 954990, "price_max_raw": 1119616, "sf_min": 2222, "sf_max": 2689, "price_range": "$954,990 – $1,119,616", "sf_range": "2,222 – 2,689 SF", "city": "Mountain House", "county": "San Joaquin", "state": "CA", "zip": 95391 }, "geometry": { "type": "Point", "coordinates": [ -121.540314, 37.756934 ] } },
{ "type": "Feature", "properties": { "builder": "Lennar", "community": "Viridian II at Pradera Ranch", "project_type": "Single Family", "status": "Active", "price_min_raw": 608990, "price_max_raw": 700990, "sf_min": 1596, "sf_max": 2609, "price_range": "$608,990 – $700,990", "sf_range": "1,596 – 2,609 SF", "city": "Rancho Cordova", "county": "Sacramento", "state": "CA", "zip": 95742 }, "geometry": { "type": "Point", "coordinates": [ -121.2023, 38.5419 ] } },
{ "type": "Feature", "properties": { "builder": "Florsheim Homes", "community": "Icon Atrium", "project_type": "Not Specified", "status": "Active", "price_min_raw": 554990, "price_max_raw": 649990, "sf_min": 1561, "sf_max": 2566, "price_range": "$554,990 – $649,990", "sf_range": "1,561 – 2,566 SF", "city": "Turlock", "county": "Stanislaus", "state": "CA", "zip": 95382 }, "geometry": { "type": "Point", "coordinates": [ -120.864681, 37.534767 ] } },
{ "type": "Feature", "properties": { "builder": "Richmond American Homes", "community": "Tapestry at Amoruso Ranch", "project_type": "Single Family", "status": "Active", "price_min_raw": 740950, "price_max_raw": 902790, "sf_min": 2490, "sf_max": 3960, "price_range": "$740,950 – $902,790", "sf_range": "2,490 – 3,960 SF", "city": "Roseville", "county": "Placer", "state": "CA", "zip": 95747 }, "geometry": { "type": "Point", "coordinates": [ -121.386242, 38.813963 ] } },
{ "type": "Feature", "properties": { "builder": "Lennar", "community": "Molise | Active Adult 55+", "project_type": "Single Family", "status": "Active", "price_min_raw": 514990, "price_max_raw": 579990, "sf_min": 1251, "sf_max": 1779, "price_range": "$514,990 – $579,990", "sf_range": "1,251 – 1,779 SF", "city": "Roseville", "county": "Placer", "state": "CA", "zip": 95747 }, "geometry": { "type": "Point", "coordinates": [ -121.3726, 38.7496 ] } },
{ "type": "Feature", "properties": { "builder": "Homes By Towne", "community": "Las Brisas at Stones Throw", "project_type": "Not Specified", "status": "Active", "price_min_raw": 0, "price_max_raw": 668193, "sf_min": 0, "sf_max": 2458, "price_range": "$0 – $668,193", "sf_range": "0 – 2,458 SF", "city": "Winters", "county": "Yolo", "state": "CA", "zip": 95694 }, "geometry": { "type": "Point", "coordinates": [ -121.986571, 38.5267 ] } },
{ "type": "Feature", "properties": { "builder": "Toll Brothers", "community": "Preserve at Folsom Ranch - Heritage Trails", "project_type": "Single Family", "status": "Active", "price_min_raw": 1032995, "price_max_raw": 1304995, "sf_min": 2539, "sf_max": 3788, "price_range": "$1,032,995 – $1,304,995", "sf_range": "2,539 – 3,788 SF", "city": "Folsom", "county": "Sacramento", "state": "CA", "zip": 95630 }, "geometry": { "type": "Point", "coordinates": [ -121.131857, 38.622667 ] } },
{ "type": "Feature", "properties": { "builder": "Elliott Homes", "community": "Ponderosa at Saratoga Estates", "project_type": "Single Family", "status": "Active", "price_min_raw": 939950, "price_max_raw": 1052950, "sf_min": 2437, "sf_max": 2664, "price_range": "$939,950 – $1,052,950", "sf_range": "2,437 – 2,664 SF", "city": "El Dorado Hills", "county": "El Dorado", "state": "CA", "zip": 95762 }, "geometry": { "type": "Point", "coordinates": [ -121.079415, 38.652072 ] } },
{ "type": "Feature", "properties": { "builder": "Lennar", "community": "Celedon at Pradera Ranch", "project_type": "Single Family", "status": "Active", "price_min_raw": 620990, "price_max_raw": 727990, "sf_min": 1765, "sf_max": 2966, "price_range": "$620,990 – $727,990", "sf_range": "1,765 – 2,966 SF", "city": "Rancho Cordova", "county": "Sacramento", "state": "CA", "zip": 95742 }, "geometry": { "type": "Point", "coordinates": [ -121.2023, 38.5419 ] } },
{ "type": "Feature", "properties": { "builder": "Meritage Homes", "community": "Hawthorn at Arbor Bend", "project_type": "Single Family", "status": "Active", "price_min_raw": 638950, "price_max_raw": 737265, "sf_min": 1612, "sf_max": 2168, "price_range": "$638,950 – $737,265", "sf_range": "1,612 – 2,168 SF", "city": "Manteca", "county": "San Joaquin", "state": "CA", "zip": 95337 }, "geometry": { "type": "Point", "coordinates": [ -121.275086, 37.770831 ] } },
{ "type": "Feature", "properties": { "builder": "Riverland Homes, Inc.", "community": "Dry Creek Oaks | Active Adult 55+", "project_type": "Not Specified", "status": "Active", "price_min_raw": 489406, "price_max_raw": 613085, "sf_min": 1480, "sf_max": 2105, "price_range": "$489,406 – $613,085", "sf_range": "1,480 – 2,105 SF", "city": "Galt", "county": "Sacramento", "state": "CA", "zip": 95632 }, "geometry": { "type": "Point", "coordinates": [ -121.283057, 38.252145 ] } },
{ "type": "Feature", "properties": { "builder": "Richmond American Homes", "community": "Laguna Ranch", "project_type": "Single Family", "status": "Close Out", "price_min_raw": 816704, "price_max_raw": 841925, "sf_min": 2720, "sf_max": 2790, "price_range": "$816,704 – $841,925", "sf_range": "2,720 – 2,790 SF", "city": "Elk Grove", "county": "Sacramento", "state": "CA", "zip": 95757 }, "geometry": { "type": "Point", "coordinates": [ -121.413463, 38.390471 ] } },
{ "type": "Feature", "properties": { "builder": "Lennar", "community": "Verdant II at Pradera Ranch", "project_type": "Single Family", "status": "Active", "price_min_raw": 621990, "price_max_raw": 675990, "sf_min": 1579, "sf_max": 2528, "price_range": "$621,990 – $675,990", "sf_range": "1,579 – 2,528 SF", "city": "Rancho Cordova", "county": "Sacramento", "state": "CA", "zip": 95742 }, "geometry": { "type": "Point", "coordinates": [ -121.2023, 38.5419 ] } },
{ "type": "Feature", "properties": { "builder": "KB Home", "community": "Iron Pointe at Stanford Crossing", "project_type": "Single Family", "status": "Close Out", "price_min_raw": 664990, "price_max_raw": 699990, "sf_min": 1780, "sf_max": 2152, "price_range": "$664,990 – $699,990", "sf_range": "1,780 – 2,152 SF", "city": "Lathrop", "county": "San Joaquin", "state": "CA", "zip": 95330 }, "geometry": { "type": "Point", "coordinates": [ -121.305846, 37.818292 ] } },
{ "type": "Feature", "properties": { "builder": "Tim Lewis Communities", "community": "The Oasis", "project_type": "Not Specified", "status": "Active", "price_min_raw": 819336, "price_max_raw": 832342, "sf_min": 2129, "sf_max": 2129, "price_range": "$819,336 – $832,342", "sf_range": "0 – 2,129 SF", "city": "Elk Grove", "county": "Sacramento", "state": "CA", "zip": 95757 }, "geometry": { "type": "Point", "coordinates": [ -121.403502, 38.390994 ] } },
{ "type": "Feature", "properties": { "builder": "KB Home", "community": "Westcott Station", "project_type": "Single Family", "status": "Active", "price_min_raw": 498990, "price_max_raw": 517990, "sf_min": 1587, "sf_max": 1755, "price_range": "$498,990 – $517,990", "sf_range": "1,587 – 1,755 SF", "city": "Sacramento", "county": "Sacramento", "state": "CA", "zip": 95827 }, "geometry": { "type": "Point", "coordinates": [ -121.333109, 38.557002 ] } },
{ "type": "Feature", "properties": { "builder": "Next New Homes Group", "community": "Sycamore Grove", "project_type": "Not Specified", "status": "Active", "price_min_raw": 899500, "price_max_raw": 899500, "sf_min": 0, "sf_max": 2637, "price_range": "$0 – $899,500", "sf_range": "0 – 2,637 SF", "city": "Sacramento", "county": "Sacramento", "state": "CA", "zip": 95829 }, "geometry": { "type": "Point", "coordinates": [ -121.316416, 38.454056 ] } },
{ "type": "Feature", "properties": { "builder": "Next Generation Capital", "community": "Northpointe Reserve", "project_type": "Not Specified", "status": "Grand Opening", "price_min_raw": 484900, "price_max_raw": 524900, "sf_min": 0, "sf_max": 1427, "price_range": "$484,900 – $524,900", "sf_range": "0 – 1,427 SF", "city": "Sacramento", "county": "Sacramento", "state": "CA", "zip": 95835 }, "geometry": { "type": "Point", "coordinates": [ -121.50636, 38.68144 ] } },
{ "type": "Feature", "properties": { "builder": "Richmond American Homes", "community": "Villa Ticino", "project_type": "Single Family", "status": "Active", "price_min_raw": 707734, "price_max_raw": 853445, "sf_min": 2180, "sf_max": 3200, "price_range": "$707,734 – $853,445", "sf_range": "2,180 – 3,200 SF", "city": "Manteca", "county": "San Joaquin", "state": "CA", "zip": 95337 }, "geometry": { "type": "Point", "coordinates": [ -121.253927, 37.808338 ] } },
{ "type": "Feature", "properties": { "builder": "Taylor Morrison", "community": "Homestead at Madeira Ranch", "project_type": null, "status": "Active", "price_min_raw": 677999, "price_max_raw": 869999, "sf_min": 2121, "sf_max": 3031, "price_range": "$677,999 – $869,999", "sf_range": "2,121 – 3,031 SF", "city": "Elk Grove", "county": "Sacramento", "state": "CA", "zip": 95757 }, "geometry": { "type": "Point", "coordinates": [ -121.3909, 38.3844 ] } },
{ "type": "Feature", "properties": { "builder": "Taylor Morrison", "community": "Esplanade at Madeira Ranch", "project_type": null, "status": "Active", "price_min_raw": 539999, "price_max_raw": 919000, "sf_min": 1644, "sf_max": 2979, "price_range": "$539,999 – $919,000", "sf_range": "1,644 – 2,979 SF", "city": "Elk Grove", "county": "Sacramento", "state": "CA", "zip": 95757 }, "geometry": { "type": "Point", "coordinates": [ -121.387387, 38.386561 ] } },
{ "type": "Feature", "properties": { "builder": "KB Home", "community": "Arcadia at Stanford Crossing", "project_type": "Single Family", "status": "Active", "price_min_raw": 564990, "price_max_raw": 677990, "sf_min": 1385, "sf_max": 2378, "price_range": "$564,990 – $677,990", "sf_range": "1,385 – 2,378 SF", "city": "Lathrop", "county": "San Joaquin", "state": "CA", "zip": 95330 }, "geometry": { "type": "Point", "coordinates": [ -121.304832, 37.814624 ] } },
{ "type": "Feature", "properties": { "builder": "LGI Homes", "community": "Velare at Twelve Bridges", "project_type": "Not Specified", "status": "Active", "price_min_raw": 464900, "price_max_raw": 580900, "sf_min": 1223, "sf_max": 1802, "price_range": "$464,900 – $580,900", "sf_range": "1,223 – 1,802 SF", "city": "Lincoln", "county": "Placer", "state": "CA", "zip": 95648 }, "geometry": { "type": "Point", "coordinates": [ -121.287075, 38.854777 ] } },
{ "type": "Feature", "properties": { "builder": "Lennar", "community": "Baldwin Ranch - Magnolia", "project_type": "Single Family", "status": "Active", "price_min_raw": 501880, "price_max_raw": 579880, "sf_min": 1927, "sf_max": 2436, "price_range": "$501,880 – $579,880", "sf_range": "1,927 – 2,436 SF", "city": "Patterson", "county": "Stanislaus", "state": "CA", "zip": 95363 }, "geometry": { "type": "Point", "coordinates": [ -121.1619, 37.4594 ] } },
{ "type": "Feature", "properties": { "builder": "K. Hovnanian® Homes", "community": "Paseo at The Ranch", "project_type": "Single Family", "status": "Active", "price_min_raw": 510990, "price_max_raw": 597140, "sf_min": 1727, "sf_max": 2028, "price_range": "$510,990 – $597,140", "sf_range": "1,727 – 2,028 SF", "city": "Rancho Cordova", "county": "Sacramento", "state": "CA", "zip": 95742 }, "geometry": { "type": "Point", "coordinates": [ -121.224057, 38.549815 ] } },
{ "type": "Feature", "properties": { "builder": "K. Hovnanian® Homes", "community": "Canyon at The Ranch", "project_type": "Single Family", "status": "Active", "price_min_raw": 603990, "price_max_raw": 745194, "sf_min": 1945, "sf_max": 2752, "price_range": "$603,990 – $745,194", "sf_range": "1,945 – 2,752 SF", "city": "Rancho Cordova", "county": "Sacramento", "state": "CA", "zip": 95742 }, "geometry": { "type": "Point", "coordinates": [ -121.224057, 38.549815 ] } },
{ "type": "Feature", "properties": { "builder": "Toll Brothers", "community": "Hidden Ridge", "project_type": "Single Family", "status": "Active", "price_min_raw": 1004995, "price_max_raw": 1409995, "sf_min": 3006, "sf_max": 4022, "price_range": "$1,004,995 – $1,409,995", "sf_range": "3,006 – 4,022 SF", "city": "El Dorado Hills", "county": "El Dorado", "state": "CA", "zip": 95762 }, "geometry": { "type": "Point", "coordinates": [ -121.026162, 38.672453 ] } },
{ "type": "Feature", "properties": { "builder": "New Home Co.", "community": "The Cottages at Arbor Ranch", "project_type": "Not Specified", "status": "Active", "price_min_raw": 702500, "price_max_raw": 737490, "sf_min": 1953, "sf_max": 2658, "price_range": "$702,500 – $737,490", "sf_range": "1,953 – 2,658 SF", "city": "Elk Grove", "county": "Sacramento", "state": "CA", "zip": 95757 }, "geometry": { "type": "Point", "coordinates": [ -121.413132, 38.383627 ] } },
{ "type": "Feature", "properties": { "builder": "KB Home", "community": "Acacia at Patterson Ranch", "project_type": null, "status": "Close Out", "price_min_raw": 534990, "price_max_raw": 547990, "sf_min": 2117, "sf_max": 2259, "price_range": "$534,990 – $547,990", "sf_range": "2,117 – 2,259 SF", "city": "Patterson", "county": "Stanislaus", "state": "CA", "zip": 95363 }, "geometry": { "type": "Point", "coordinates": [ -121.120541, 37.48647 ] } },
{ "type": "Feature", "properties": { "builder": "Lennar", "community": "Northlake - Bleau", "project_type": "Single Family", "status": "Active", "price_min_raw": 691990, "price_max_raw": 960562, "sf_min": 2143, "sf_max": 3460, "price_range": "$691,990 – $960,562", "sf_range": "2,143 – 3,460 SF", "city": "Sacramento", "county": "Sacramento", "state": "CA", "zip": 95835 }, "geometry": { "type": "Point", "coordinates": [ -121.5485, 38.6774 ] } },
{ "type": "Feature", "properties": { "builder": "Williams Homes", "community": "Magnolia Village", "project_type": null, "status": "Active", "price_min_raw": 406495, "price_max_raw": 440630, "sf_min": 1494, "sf_max": 1774, "price_range": "$406,495 – $440,630", "sf_range": "1,494 – 1,774 SF", "city": "Lincoln", "county": "Placer", "state": "CA", "zip": 95648 }, "geometry": { "type": "Point", "coordinates": [ -121.312142, 38.889491 ] } },
{ "type": "Feature", "properties": { "builder": "Meritage Homes", "community": "Rushmore at Liberty Ranch", "project_type": "Single Family", "status": "Active", "price_min_raw": 616990, "price_max_raw": 699990, "sf_min": 2030, "sf_max": 2805, "price_range": "$616,990 – $699,990", "sf_range": "2,030 – 2,805 SF", "city": "Galt", "county": "Sacramento", "state": "CA", "zip": 95632 }, "geometry": { "type": "Point", "coordinates": [ -121.276237, 38.279409 ] } },
{ "type": "Feature", "properties": { "builder": "KB Home", "community": "Archer Estates", "project_type": "Single Family", "status": "Active", "price_min_raw": 498990, "price_max_raw": 618990, "sf_min": 1429, "sf_max": 2686, "price_range": "$498,990 – $618,990", "sf_range": "1,429 – 2,686 SF", "city": "Sacramento", "county": "Sacramento", "state": "CA", "zip": 95838 }, "geometry": { "type": "Point", "coordinates": [ -121.443053, 38.64396 ] } },
{ "type": "Feature", "properties": { "builder": "Lennar", "community": "The Trails - Howden", "project_type": "Single Family", "status": "Active", "price_min_raw": 658880, "price_max_raw": 715794, "sf_min": 2242, "sf_max": 2636, "price_range": "$658,880 – $715,794", "sf_range": "2,242 – 2,636 SF", "city": "Manteca", "county": "San Joaquin", "state": "CA", "zip": 95337 }, "geometry": { "type": "Point", "coordinates": [ -121.28, 37.7743 ] } },
{ "type": "Feature", "properties": { "builder": "Lennar", "community": "Windham at Sierra West", "project_type": "Single Family", "status": "Active", "price_min_raw": 609990, "price_max_raw": 695990, "sf_min": 1765, "sf_max": 2179, "price_range": "$609,990 – $695,990", "sf_range": "1,765 – 2,179 SF", "city": "Roseville", "county": "Placer", "state": "CA", "zip": 95747 }, "geometry": { "type": "Point", "coordinates": [ -121.3904, 38.7571 ] } },
{ "type": "Feature", "properties": { "builder": "Legacy Homes", "community": "Willow Creek", "project_type": "Not Specified", "status": "Active", "price_min_raw": 493990, "price_max_raw": 657542, "sf_min": 1818, "sf_max": 2693, "price_range": "$493,990 – $657,542", "sf_range": "1,818 – 2,693 SF", "city": "Plumas Lake", "county": "Yuba", "state": "CA", "zip": 95961 }, "geometry": { "type": "Point", "coordinates": [ -121.552465, 38.989713 ] } },
{ "type": "Feature", "properties": { "builder": "Meritage Homes", "community": "Asheville at East Village", "project_type": "Single Family", "status": "Coming Soon", "price_min_raw": 0, "price_max_raw": 0, "sf_min": 2020, "sf_max": 2419, "price_range": "$0 – $0", "sf_range": "2,020 – 2,419 SF", "city": "Sacramento", "county": "Sacramento", "state": "CA", "zip": 95835 }, "geometry": { "type": "Point", "coordinates": [ -121.490978, 38.670227 ] } },
{ "type": "Feature", "properties": { "builder": "Lennar", "community": "Cortese at Vineyard Parke", "project_type": "Single Family", "status": "Active", "price_min_raw": 651990, "price_max_raw": 732490, "sf_min": 2107, "sf_max": 2776, "price_range": "$651,990 – $732,490", "sf_range": "2,107 – 2,776 SF", "city": "Sacramento", "county": "Sacramento", "state": "CA", "zip": 95829 }, "geometry": { "type": "Point", "coordinates": [ -121.3729, 38.4915 ] } },
{ "type": "Feature", "properties": { "builder": "KB Home", "community": "Westbourne at The Grove", "project_type": "Single Family", "status": "Active", "price_min_raw": 592990, "price_max_raw": 667990, "sf_min": 1552, "sf_max": 2124, "price_range": "$592,990 – $667,990", "sf_range": "1,552 – 2,124 SF", "city": "Elk Grove", "county": "Sacramento", "state": "CA", "zip": 95757 }, "geometry": { "type": "Point", "coordinates": [ -121.39782, 38.387114 ] } },
{ "type": "Feature", "properties": { "builder": "Lennar", "community": "Redwood IV at Vineyard Parke", "project_type": "Single Family", "status": "Active", "price_min_raw": 662990, "price_max_raw": 785990, "sf_min": 1950, "sf_max": 3427, "price_range": "$662,990 – $785,990", "sf_range": "1,950 – 3,427 SF", "city": "Sacramento", "county": "Sacramento", "state": "CA", "zip": 95829 }, "geometry": { "type": "Point", "coordinates": [ -121.3729, 38.4915 ] } },
{ "type": "Feature", "properties": { "builder": "Lennar", "community": "Creekside - Parson Place", "project_type": "Single Family", "status": "Active", "price_min_raw": 645880, "price_max_raw": 849880, "sf_min": 1603, "sf_max": 2024, "price_range": "$645,880 – $849,880", "sf_range": "1,603 – 2,024 SF", "city": "Mountain House", "county": "San Joaquin", "state": "CA", "zip": 95391 }, "geometry": { "type": "Point", "coordinates": [ -121.5425, 37.7839 ] } },
{ "type": "Feature", "properties": { "builder": "Beazer Homes", "community": "Verrado II at Solaire", "project_type": "Single Family", "status": "Active", "price_min_raw": 589990, "price_max_raw": 799990, "sf_min": 1899, "sf_max": 2465, "price_range": "$589,990 – $799,990", "sf_range": "1,899 – 2,465 SF", "city": "Roseville", "county": "Placer", "state": "CA", "zip": 95747 }, "geometry": { "type": "Point", "coordinates": [ -121.397973, 38.7748 ] } },
{ "type": "Feature", "properties": { "builder": "Lennar", "community": "Tracy Hills - Rangewood", "project_type": "Single Family", "status": "Active", "price_min_raw": 869880, "price_max_raw": 1104613, "sf_min": 2492, "sf_max": 3536, "price_range": "$869,880 – $1,104,613", "sf_range": "2,492 – 3,536 SF", "city": "Tracy", "county": "San Joaquin", "state": "CA", "zip": 95377 }, "geometry": { "type": "Point", "coordinates": [ -121.467, 37.6753 ] } },
{ "type": "Feature", "properties": { "builder": "Meritage Homes", "community": "Bridgeport at East Village", "project_type": "Single Family", "status": "Coming Soon", "price_min_raw": 0, "price_max_raw": 0, "sf_min": 2310, "sf_max": 2765, "price_range": "$0 – $0", "sf_range": "2,310 – 2,765 SF", "city": "Sacramento", "county": "Sacramento", "state": "CA", "zip": 95835 }, "geometry": { "type": "Point", "coordinates": [ -121.490978, 38.670227 ] } },
{ "type": "Feature", "properties": { "builder": "KB Home", "community": "Westhaven at Whitney Ranch", "project_type": "Single Family", "status": "Active", "price_min_raw": 562495, "price_max_raw": 626845, "sf_min": 1570, "sf_max": 1882, "price_range": "$562,495 – $626,845", "sf_range": "1,570 – 1,882 SF", "city": "Rocklin", "county": "Placer", "state": "CA", "zip": 95765 }, "geometry": { "type": "Point", "coordinates": [ -121.290884, 38.828978 ] } },
{ "type": "Feature", "properties": { "builder": "Century Communities", "community": "Trailside Collection", "project_type": null, "status": "Active", "price_min_raw": 0, "price_max_raw": 637015, "sf_min": 1910, "sf_max": 2557, "price_range": "$0 – $637,015", "sf_range": "1,910 – 2,557 SF", "city": "West Sacramento", "county": "Yolo", "state": "CA", "zip": 95605 }, "geometry": { "type": "Point", "coordinates": [ -121.51888, 38.597688 ] } },
{ "type": "Feature", "properties": { "builder": "Tim Lewis Communities", "community": "Revival", "project_type": "Not Specified", "status": "Active", "price_min_raw": 533900, "price_max_raw": 630737, "sf_min": 0, "sf_max": 1908, "price_range": "$533,900 – $630,737", "sf_range": "0 – 1,908 SF", "city": "Woodland", "county": "Yolo", "state": "CA", "zip": 95776 }, "geometry": { "type": "Point", "coordinates": [ -121.74498, 38.64488 ] } },
{ "type": "Feature", "properties": { "builder": "Richmond American Homes", "community": "Autumn Trails at Westlake", "project_type": "Single Family", "status": "Close Out", "price_min_raw": 657000, "price_max_raw": 710000, "sf_min": 1870, "sf_max": 2380, "price_range": "$657,000 – $710,000", "sf_range": "1,870 – 2,380 SF", "city": "Stockton", "county": "San Joaquin", "state": "CA", "zip": 95219 }, "geometry": { "type": "Point", "coordinates": [ -121.395177, 38.047705 ] } },
{ "type": "Feature", "properties": { "builder": "LGI Homes", "community": "Cannery Park", "project_type": "Not Specified", "status": "Active", "price_min_raw": 510900, "price_max_raw": 601900, "sf_min": 1108, "sf_max": 1848, "price_range": "$510,900 – $601,900", "sf_range": "1,108 – 1,848 SF", "city": "Stockton", "county": "San Joaquin", "state": "CA", "zip": 95212 }, "geometry": { "type": "Point", "coordinates": [ -121.273105, 38.049843 ] } },
{ "type": "Feature", "properties": { "builder": "KB Home", "community": "Vintage Oak at Gateway", "project_type": "Single Family", "status": "Active", "price_min_raw": 552990, "price_max_raw": 664990, "sf_min": 1855, "sf_max": 2558, "price_range": "$552,990 – $664,990", "sf_range": "1,855 – 2,558 SF", "city": "Lodi", "county": "San Joaquin", "state": "CA", "zip": 95242 }, "geometry": { "type": "Point", "coordinates": [ -121.309888, 38.10135 ] } },
{ "type": "Feature", "properties": { "builder": "K. Hovnanian® Homes", "community": "Silverbrook at The Ranch", "project_type": "Single Family", "status": "Active", "price_min_raw": 548990, "price_max_raw": 604962, "sf_min": 1850, "sf_max": 2150, "price_range": "$548,990 – $604,962", "sf_range": "1,850 – 2,150 SF", "city": "Rancho Cordova", "county": "Sacramento", "state": "CA", "zip": 95742 }, "geometry": { "type": "Point", "coordinates": [ -121.217958, 38.547786 ] } },
{ "type": "Feature", "properties": { "builder": "Meritage Homes", "community": "Traverse at Winding Creek", "project_type": "Single Family", "status": "Close Out", "price_min_raw": 605990, "price_max_raw": 680884, "sf_min": 1816, "sf_max": 2168, "price_range": "$605,990 – $680,884", "sf_range": "1,816 – 2,168 SF", "city": "Roseville", "county": "Placer", "state": "CA", "zip": 95747 }, "geometry": { "type": "Point", "coordinates": [ -121.38336, 38.801336 ] } },
{ "type": "Feature", "properties": { "builder": "Toll Brothers", "community": "Regency at Tracy Lakes - Echo Collection", "project_type": "Single Family", "status": "Active", "price_min_raw": 964995, "price_max_raw": 1399995, "sf_min": 2548, "sf_max": 2775, "price_range": "$964,995 – $1,399,995", "sf_range": "2,548 – 2,775 SF", "city": "Tracy", "county": "San Joaquin", "state": "CA", "zip": 95377 }, "geometry": { "type": "Point", "coordinates": [ -121.44696, 37.708172 ] } },
{ "type": "Feature", "properties": { "builder": "Shea Homes", "community": "Langston at Mountain House", "project_type": null, "status": "Active", "price_min_raw": 817749, "price_max_raw": 942095, "sf_min": 1831, "sf_max": 2084, "price_range": "$817,749 – $942,095", "sf_range": "1,831 – 2,084 SF", "city": "Mountain House", "county": "San Joaquin", "state": "CA", "zip": 95391 }, "geometry": { "type": "Point", "coordinates": [ -121.544181, 37.760565 ] } },
{ "type": "Feature", "properties": { "builder": "Tri Pointe Homes", "community": "Wildblossom at Montelena", "project_type": "Single Family", "status": "Active", "price_min_raw": 666236, "price_max_raw": 807810, "sf_min": 2430, "sf_max": 3375, "price_range": "$666,236 – $807,810", "sf_range": "2,430 – 3,375 SF", "city": "Rancho Cordova", "county": "Sacramento", "state": "CA", "zip": 95742 }, "geometry": { "type": "Point", "coordinates": [ -121.228513, 38.549959 ] } },
{ "type": "Feature", "properties": { "builder": "New Home Co.", "community": "The Residences at Arbor Ranch", "project_type": "Not Specified", "status": "Active", "price_min_raw": 799735, "price_max_raw": 914775, "sf_min": 3304, "sf_max": 3304, "price_range": "$799,735 – $914,775", "sf_range": "0 – 3,304 SF", "city": "Elk Grove", "county": "Sacramento", "state": "CA", "zip": 95757 }, "geometry": { "type": "Point", "coordinates": [ -121.404601, 38.380567 ] } },
{ "type": "Feature", "properties": { "builder": "Lennar", "community": "Symphony at Arbor Ranch", "project_type": "Single Family", "status": "Active", "price_min_raw": 755990, "price_max_raw": 814990, "sf_min": 2463, "sf_max": 3025, "price_range": "$755,990 – $814,990", "sf_range": "2,463 – 3,025 SF", "city": "Elk Grove", "county": "Sacramento", "state": "CA", "zip": 95624 }, "geometry": { "type": "Point", "coordinates": [ -121.3729, 38.4915 ] } },
{ "type": "Feature", "properties": { "builder": "K. Hovnanian® Homes", "community": "Montrose at The Ranch", "project_type": "Single Family", "status": "Active", "price_min_raw": 595990, "price_max_raw": 650740, "sf_min": 2226, "sf_max": 2628, "price_range": "$595,990 – $650,740", "sf_range": "2,226 – 2,628 SF", "city": "Rancho Cordova", "county": "Sacramento", "state": "CA", "zip": 95742 }, "geometry": { "type": "Point", "coordinates": [ -121.224057, 38.549815 ] } },