{
  "type": "FeatureCollection",
  "features": [
    {
      "type": "Feature",
      "geometry": {
        "type": "Point",
        "coordinates": [-104.9964, 39.7545]
      },
      "properties": {
        "name": "The True Life Companies (Corp)",
        "description": "1601 19th Street, Suite 550 <br>Denver, CO 80202"
      }
    },
    {
      "type": "Feature",
      "geometry": {
        "type": "Point",
        "coordinates": [-97.7454,30.2800]
      },
      "properties": {
        "name": "The True Life Companies (AUS)",
        "description": "1601 Rio Grande, Suite 340 <br>Austin, TX 78701"
      }
    },
    {
      "type": "Feature",
      "geometry": {
        "type": "Point",
        "coordinates": [-121.9594, 37.7728]
      },
      "properties": {
        "name": "The True Life Companies (BAY)",
        "description": "12647 Alcosta Blvd. <br>San Ramon CA 94583"
      }
    },
    {
      "type": "Feature",
      "geometry": {
        "type": "Point",
        "coordinates": [-78.6654, 35.8220]
      },
      "properties": {
        "name": "The True Life Companies (CAR)",
        "description": "3101 Glenwood Ave, Suite 205 <br>Raleigh, NC 27612"
      }
    },
    {
      "type": "Feature",
      "geometry": {
        "type": "Point",
        "coordinates": [-121.1885, 38.6507]
      },
      "properties": {
        "name": "The True Life Companies (SAC)",
        "description": "110 Blue Ravine Road, Suite 150 <br>Folsom, CA 95630"
      }
    },
    {
      "type": "Feature",
      "geometry": {
        "type": "Point",
        "coordinates": [-117.8608, 33.6646]
      },
      "properties": {
        "name": "The True Life Companies (SCA)",
        "description": "4350 Von Karman Ave, Suite 200 <br>Newport Beach, CA 92660"
      }
    }

  ]
}
