{
"type": "FeatureCollection",
"name": "Colorado Springs-2025.03.31",
"crs": { "type": "name", "properties": { "name": "urn:ogc:def:crs:OGC:1.3:CRS84" } },
"features": [
{ "type": "Feature", "properties": { "builder": "Covington Homes", "community": "Banning Lewis Ranch", "project_type": "Not Specified", "status": "Grand Opening", "price_min_raw": 501500, "price_max_raw": 616500, "sf_min": 1737, "sf_max": 2202, "price_range": "$501,500 – $616,500", "sf_range": "1,737 – 2,202 SF", "city": "Colorado Springs", "county": "El Paso", "state": "CO", "zip": 80927 }, "geometry": { "type": "Point", "coordinates": [ -104.673358, 38.923634 ] } },
{ "type": "Feature", "properties": { "builder": "American Legend Homes", "community": "RainDance National 60/70", "project_type": "Single Family", "status": "Active", "price_min_raw": 799990, "price_max_raw": 1050000, "sf_min": 2155, "sf_max": 4563, "price_range": "$799,990 – $1,050,000", "sf_range": "2,155 – 4,563 SF", "city": "Windsor", "county": "Weld", "state": "CO", "zip": 80550 }, "geometry": { "type": "Point", "coordinates": [ -104.937924, 40.453595 ] } },
{ "type": "Feature", "properties": { "builder": "Lennar", "community": "Ledge Rock - The Pioneer Collection", "project_type": "Single Family", "status": "Active", "price_min_raw": 481900, "price_max_raw": 534900, "sf_min": 1862, "sf_max": 2391, "price_range": "$481,900 – $534,900", "sf_range": "1,862 – 2,391 SF", "city": "Johnstown", "county": "Weld", "state": "CO", "zip": 80534 }, "geometry": { "type": "Point", "coordinates": [ -104.9621, 40.3302 ] } },
{ "type": "Feature", "properties": { "builder": "Lennar", "community": "Harvest Ridge - The Skyline Collection", "project_type": "Single Family", "status": "Active", "price_min_raw": 464900, "price_max_raw": 570900, "sf_min": 1380, "sf_max": 2235, "price_range": "$464,900 – $570,900", "sf_range": "1,380 – 2,235 SF", "city": "Aurora", "county": "Arapahoe", "state": "CO", "zip": 80018 }, "geometry": { "type": "Point", "coordinates": [ -104.7032, 39.6805 ] } },
{ "type": "Feature", "properties": { "builder": "Baessler Homes", "community": "Sage Meadows", "project_type": "Single Family", "status": "Active", "price_min_raw": 390000, "price_max_raw": 466335, "sf_min": 992, "sf_max": 1730, "price_range": "$390,000 – $466,335", "sf_range": "992 – 1,730 SF", "city": "Wellington", "county": "Larimer", "state": "CO", "zip": 80549 }, "geometry": { "type": "Point", "coordinates": [ -105.015759, 40.689483 ] } },
{ "type": "Feature", "properties": { "builder": "West Grange", "community": "West Grange", "project_type": "Not Specified", "status": "Active", "price_min_raw": 974900, "price_max_raw": 1499900, "sf_min": 2014, "sf_max": 2777, "price_range": "$974,900 – $1,499,900", "sf_range": "2,014 – 2,777 SF", "city": "Longmont", "county": "Boulder", "state": "CO", "zip": 80503 }, "geometry": { "type": "Point", "coordinates": [ -105.178115, 40.150267 ] } },
{ "type": "Feature", "properties": { "builder": "Lennar", "community": "Ken-Caryl Ranch - The Monarch Collection", "project_type": "Single Family", "status": "Active", "price_min_raw": 909900, "price_max_raw": 985900, "sf_min": 2287, "sf_max": 3162, "price_range": "$909,900 – $985,900", "sf_range": "2,287 – 3,162 SF", "city": "Littleton", "county": "Arapahoe", "state": "CO", "zip": 80127 }, "geometry": { "type": "Point", "coordinates": [ -105.142, 39.5828 ] } },
{ "type": "Feature", "properties": { "builder": "Richmond American Homes", "community": "Colliers Hill", "project_type": "Single Family", "status": "Active", "price_min_raw": 604950, "price_max_raw": 934950, "sf_min": 1750, "sf_max": 4520, "price_range": "$604,950 – $934,950", "sf_range": "1,750 – 4,520 SF", "city": "Erie", "county": "Weld", "state": "CO", "zip": 80516 }, "geometry": { "type": "Point", "coordinates": [ -105.02168, 40.05273 ] } },
{ "type": "Feature", "properties": { "builder": "Richmond American Homes", "community": "Urban Collection at Parkdale", "project_type": "Duplex", "status": "Active", "price_min_raw": 489950, "price_max_raw": 514950, "sf_min": 1430, "sf_max": 1547, "price_range": "$489,950 – $514,950", "sf_range": "1,430 – 1,547 SF", "city": "Lafayette", "county": "Boulder", "state": "CO", "zip": 80026 }, "geometry": { "type": "Point", "coordinates": [ -105.076154, 40.004686 ] } },
{ "type": "Feature", "properties": { "builder": "Century Communities", "community": "Farmlore", "project_type": null, "status": "Active", "price_min_raw": 499990, "price_max_raw": 599990, "sf_min": 1679, "sf_max": 2445, "price_range": "$499,990 – $599,990", "sf_range": "1,679 – 2,445 SF", "city": "Brighton", "county": "Adams", "state": "CO", "zip": 80601 }, "geometry": { "type": "Point", "coordinates": [ -104.804864, 39.954655 ] } },
{ "type": "Feature", "properties": { "builder": "Classic Homes", "community": "Greenways At Sand Creek", "project_type": "Not Specified", "status": "Active", "price_min_raw": 318700, "price_max_raw": 695318, "sf_min": 500, "sf_max": 4294, "price_range": "$318,700 – $695,318", "sf_range": "500 – 4,294 SF", "city": "Colorado Springs", "county": "El Paso", "state": "CO", "zip": 80922 }, "geometry": { "type": "Point", "coordinates": [ -104.70489, 38.889213 ] } },
{ "type": "Feature", "properties": { "builder": "Pulte Homes", "community": "The Aurora Highlands Summit Collection", "project_type": "Single Family", "status": "Active", "price_min_raw": 474990, "price_max_raw": 556240, "sf_min": 1829, "sf_max": 2146, "price_range": "$474,990 – $556,240", "sf_range": "1,829 – 2,146 SF", "city": "Aurora", "county": "Arapahoe", "state": "CO", "zip": 80019 }, "geometry": { "type": "Point", "coordinates": [ -104.707756, 39.773398 ] } },
{ "type": "Feature", "properties": { "builder": "Classic Homes", "community": "Percheron", "project_type": "Not Specified", "status": "Active", "price_min_raw": 382800, "price_max_raw": 823300, "sf_min": 500, "sf_max": 5642, "price_range": "$382,800 – $823,300", "sf_range": "500 – 5,642 SF", "city": "Colorado Springs", "county": "El Paso", "state": "CO", "zip": 80908 }, "geometry": { "type": "Point", "coordinates": [ -104.654495, 38.944259 ] } },
{ "type": "Feature", "properties": { "builder": "Campbell Homes", "community": "Meridian Ranch", "project_type": "Not Specified", "status": "Active", "price_min_raw": 476960, "price_max_raw": 853012, "sf_min": 1548, "sf_max": 4534, "price_range": "$476,960 – $853,012", "sf_range": "1,548 – 4,534 SF", "city": "Peyton", "county": "El Paso", "state": "CO", "zip": 80831 }, "geometry": { "type": "Point", "coordinates": [ -104.584807, 38.992179 ] } },
{ "type": "Feature", "properties": { "builder": "Shea Homes", "community": "Luxe at The Canyons", "project_type": "Single Family", "status": "Active", "price_min_raw": 1059190, "price_max_raw": 1650898, "sf_min": 2825, "sf_max": 5805, "price_range": "$1,059,190 – $1,650,898", "sf_range": "2,825 – 5,805 SF", "city": "Castle Pines", "county": "Douglas", "state": "CO", "zip": 80108 }, "geometry": { "type": "Point", "coordinates": [ -104.85063, 39.455715 ] } },
{ "type": "Feature", "properties": { "builder": "McStain Neighborhoods", "community": "Arras Park", "project_type": "Townhome", "status": "Active", "price_min_raw": 489900, "price_max_raw": 904479, "sf_min": 0, "sf_max": 3172, "price_range": "$489,900 – $904,479", "sf_range": "0 – 3,172 SF", "city": "Thornton", "county": "Adams", "state": "CO", "zip": 80229 }, "geometry": { "type": "Point", "coordinates": [ -104.952635, 39.884542 ] } },
{ "type": "Feature", "properties": { "builder": "Oakwood Homes", "community": "Banning Lewis Ranch", "project_type": "Not Specified", "status": "Active", "price_min_raw": 330900, "price_max_raw": 487183, "sf_min": 0, "sf_max": 2165, "price_range": "$330,900 – $487,183", "sf_range": "0 – 2,165 SF", "city": "Colorado Springs", "county": "El Paso", "state": "CO", "zip": 80927 }, "geometry": { "type": "Point", "coordinates": [ -104.65565, 38.915767 ] } },
{ "type": "Feature", "properties": { "builder": "Taylor Morrison", "community": "The Aurora Highlands Town Collection", "project_type": "Single Family", "status": "Active", "price_min_raw": 522999, "price_max_raw": 2147483647, "sf_min": 1797, "sf_max": 3528, "price_range": "$522,999 – $2,147,483,647", "sf_range": "1,797 – 3,528 SF", "city": "Aurora", "county": "Arapahoe", "state": "CO", "zip": 80019 }, "geometry": { "type": "Point", "coordinates": [ -104.708801, 39.764219 ] } },
{ "type": "Feature", "properties": { "builder": "Pulte Homes", "community": "The Aurora Highlands", "project_type": "Single Family", "status": "Active", "price_min_raw": 559990, "price_max_raw": 769990, "sf_min": 1809, "sf_max": 3308, "price_range": "$559,990 – $769,990", "sf_range": "1,809 – 3,308 SF", "city": "Aurora", "county": "Arapahoe", "state": "CO", "zip": 80019 }, "geometry": { "type": "Point", "coordinates": [ -104.707757, 39.773383 ] } },
{ "type": "Feature", "properties": { "builder": "Toll Brothers", "community": "Preserve at Kissing Camels", "project_type": "Single Family", "status": "Active", "price_min_raw": 705995, "price_max_raw": 959000, "sf_min": 1704, "sf_max": 3741, "price_range": "$705,995 – $959,000", "sf_range": "1,704 – 3,741 SF", "city": "Colorado Springs", "county": "El Paso", "state": "CO", "zip": 80904 }, "geometry": { "type": "Point", "coordinates": [ -104.85081, 38.876389 ] } },
{ "type": "Feature", "properties": { "builder": "Richmond American Homes", "community": "Banning Lewis Ranch", "project_type": "Single Family", "status": "Active", "price_min_raw": 489950, "price_max_raw": 679950, "sf_min": 1620, "sf_max": 3940, "price_range": "$489,950 – $679,950", "sf_range": "1,620 – 3,940 SF", "city": "Colorado Springs", "county": "El Paso", "state": "CO", "zip": 80927 }, "geometry": { "type": "Point", "coordinates": [ -104.65705, 38.91228 ] } },
{ "type": "Feature", "properties": { "builder": "Meritage Homes", "community": "Fickel Farms", "project_type": "Single Family", "status": "Active", "price_min_raw": 464990, "price_max_raw": 2147483647, "sf_min": 1575, "sf_max": 2024, "price_range": "$464,990 – $2,147,483,647", "sf_range": "1,575 – 2,024 SF", "city": "Berthoud", "county": "Larimer", "state": "CO", "zip": 80513 }, "geometry": { "type": "Point", "coordinates": [ -105.06746, 40.302862 ] } },
{ "type": "Feature", "properties": { "builder": "Meritage Homes", "community": "Paint Brush Hills", "project_type": "Single Family", "status": "Active", "price_min_raw": 479990, "price_max_raw": 630990, "sf_min": 1565, "sf_max": 3120, "price_range": "$479,990 – $630,990", "sf_range": "1,565 – 3,120 SF", "city": "Falcon", "county": "El Paso", "state": "CO", "zip": 80831 }, "geometry": { "type": "Point", "coordinates": [ -104.6293, 38.98254 ] } },
{ "type": "Feature", "properties": { "builder": "Toll Brothers", "community": "Regency at Montaine - Broomfield Collection", "project_type": "Single Family", "status": "Active", "price_min_raw": 742995, "price_max_raw": 900000, "sf_min": 2123, "sf_max": 2482, "price_range": "$742,995 – $900,000", "sf_range": "2,123 – 2,482 SF", "city": "Castle Rock", "county": "Douglas", "state": "CO", "zip": 80104 }, "geometry": { "type": "Point", "coordinates": [ -104.870283, 39.32661 ] } },
{ "type": "Feature", "properties": { "builder": "Challenger Homes", "community": "Bradley Heights", "project_type": null, "status": "Active", "price_min_raw": 429900, "price_max_raw": 560710, "sf_min": 1607, "sf_max": 2782, "price_range": "$429,900 – $560,710", "sf_range": "1,607 – 2,782 SF", "city": "Colorado Springs", "county": "El Paso", "state": "CO", "zip": 80925 }, "geometry": { "type": "Point", "coordinates": [ -104.668832, 38.759961 ] } },
{ "type": "Feature", "properties": { "builder": "Richmond American Homes", "community": "Seasons at The Glen", "project_type": "Single Family", "status": "Active", "price_min_raw": 437950, "price_max_raw": 524950, "sf_min": 1520, "sf_max": 2190, "price_range": "$437,950 – $524,950", "sf_range": "1,520 – 2,190 SF", "city": "Colorado Springs", "county": "El Paso", "state": "CO", "zip": 80925 }, "geometry": { "type": "Point", "coordinates": [ -104.654237, 38.727652 ] } },
{ "type": "Feature", "properties": { "builder": "Richmond American Homes", "community": "Oak Ridge at Crystal Valley", "project_type": "Single Family", "status": "Active", "price_min_raw": 709950, "price_max_raw": 1009950, "sf_min": 2003, "sf_max": 5120, "price_range": "$709,950 – $1,009,950", "sf_range": "2,003 – 5,120 SF", "city": "Castle Rock", "county": "Douglas", "state": "CO", "zip": 80104 }, "geometry": { "type": "Point", "coordinates": [ -104.836189, 39.32798 ] } },
{ "type": "Feature", "properties": { "builder": "Century Communities", "community": "Parkdale Commons", "project_type": null, "status": "Active", "price_min_raw": 724990, "price_max_raw": 1024990, "sf_min": 1673, "sf_max": 3547, "price_range": "$724,990 – $1,024,990", "sf_range": "1,673 – 3,547 SF", "city": "Lafayette", "county": "Boulder", "state": "CO", "zip": 80026 }, "geometry": { "type": "Point", "coordinates": [ -105.074368, 40.006611 ] } },
{ "type": "Feature", "properties": { "builder": "Lennar", "community": "Ken-Caryl Ranch - The Pioneer Collection", "project_type": "Single Family", "status": "Active", "price_min_raw": 781900, "price_max_raw": 849900, "sf_min": 1845, "sf_max": 2425, "price_range": "$781,900 – $849,900", "sf_range": "1,845 – 2,425 SF", "city": "Littleton", "county": "Arapahoe", "state": "CO", "zip": 80127 }, "geometry": { "type": "Point", "coordinates": [ -105.1293, 39.5831 ] } },
{ "type": "Feature", "properties": { "builder": "Richmond American Homes", "community": "Skyview at High Point", "project_type": "Single Family", "status": "Active", "price_min_raw": 424950, "price_max_raw": 568950, "sf_min": 1430, "sf_max": 2490, "price_range": "$424,950 – $568,950", "sf_range": "1,430 – 2,490 SF", "city": "Aurora", "county": "Adams", "state": "CO", "zip": 80019 }, "geometry": { "type": "Point", "coordinates": [ -104.742167, 39.816079 ] } },
{ "type": "Feature", "properties": { "builder": "Century Communities", "community": "Turnberry Crossing", "project_type": null, "status": "Active", "price_min_raw": 511990, "price_max_raw": 614990, "sf_min": 1672, "sf_max": 2435, "price_range": "$511,990 – $614,990", "sf_range": "1,672 – 2,435 SF", "city": "Commerce City", "county": "Adams", "state": "CO", "zip": 80022 }, "geometry": { "type": "Point", "coordinates": [ -104.843876, 39.880363 ] } },
{ "type": "Feature", "properties": { "builder": "Meritage Homes", "community": "Poudre Heights: The Lakes Collection", "project_type": "Single Family", "status": "Active", "price_min_raw": 499990, "price_max_raw": 616990, "sf_min": 1774, "sf_max": 2776, "price_range": "$499,990 – $616,990", "sf_range": "1,774 – 2,776 SF", "city": "Windsor", "county": "Weld", "state": "CO", "zip": 80550 }, "geometry": { "type": "Point", "coordinates": [ -104.917248, 40.457769 ] } },
{ "type": "Feature", "properties": { "builder": "KB Home", "community": "Painted Prairie Villas", "project_type": "Duplex", "status": "Active", "price_min_raw": 404990, "price_max_raw": 463000, "sf_min": 1430, "sf_max": 1963, "price_range": "$404,990 – $463,000", "sf_range": "1,430 – 1,963 SF", "city": "Aurora", "county": "Arapahoe", "state": "CO", "zip": 80019 }, "geometry": { "type": "Point", "coordinates": [ -104.73671, 39.80807 ] } },
{ "type": "Feature", "properties": { "builder": "Tri Pointe Homes", "community": "Westside Crossing Townhomes", "project_type": "Single Family", "status": "Active", "price_min_raw": 474900, "price_max_raw": 524900, "sf_min": 1505, "sf_max": 1867, "price_range": "$474,900 – $524,900", "sf_range": "1,505 – 1,867 SF", "city": "Berthoud", "county": "Larimer", "state": "CO", "zip": 80513 }, "geometry": { "type": "Point", "coordinates": [ -105.103635, 40.3075 ] } },
{ "type": "Feature", "properties": { "builder": "Meritage Homes", "community": "Poudre Heights: The Alpine Collection", "project_type": "Single Family", "status": "Active", "price_min_raw": 576990, "price_max_raw": 686990, "sf_min": 1993, "sf_max": 3120, "price_range": "$576,990 – $686,990", "sf_range": "1,993 – 3,120 SF", "city": "Windsor", "county": "Weld", "state": "CO", "zip": 80550 }, "geometry": { "type": "Point", "coordinates": [ -104.919407, 40.456914 ] } },
{ "type": "Feature", "properties": { "builder": "Vantage Homes", "community": "Percheron", "project_type": "Not Specified", "status": "Active", "price_min_raw": 526400, "price_max_raw": 917334, "sf_min": 1379, "sf_max": 5581, "price_range": "$526,400 – $917,334", "sf_range": "1,379 – 5,581 SF", "city": "Colorado Springs", "county": "El Paso", "state": "CO", "zip": 80908 }, "geometry": { "type": "Point", "coordinates": [ -104.68566, 39.06145 ] } },
{ "type": "Feature", "properties": { "builder": "LGI Homes", "community": "Cottonwood Greens", "project_type": "Not Specified", "status": "Active", "price_min_raw": 451900, "price_max_raw": 582900, "sf_min": 966, "sf_max": 2684, "price_range": "$451,900 – $582,900", "sf_range": "966 – 2,684 SF", "city": "Fort Lupton", "county": "Weld", "state": "CO", "zip": 80621 }, "geometry": { "type": "Point", "coordinates": [ -104.785485, 40.087847 ] } },
{ "type": "Feature", "properties": { "builder": "Taylor Morrison", "community": "The Fields at Looking Glass Town Collection", "project_type": "Single Family", "status": "Close Out", "price_min_raw": 743760, "price_max_raw": 798990, "sf_min": 2212, "sf_max": 2496, "price_range": "$743,760 – $798,990", "sf_range": "2,212 – 2,496 SF", "city": "Parker", "county": "Douglas", "state": "CO", "zip": 80134 }, "geometry": { "type": "Point", "coordinates": [ -104.784128, 39.474533 ] } },
{ "type": "Feature", "properties": { "builder": "Lennar", "community": "Parterre - The Skyline Collection", "project_type": "Single Family", "status": "Active", "price_min_raw": 599900, "price_max_raw": 662600, "sf_min": 1868, "sf_max": 2235, "price_range": "$599,900 – $662,600", "sf_range": "1,868 – 2,235 SF", "city": "Thornton", "county": "Adams", "state": "CO", "zip": 80602 }, "geometry": { "type": "Point", "coordinates": [ -104.9265, 39.9655 ] } },
{ "type": "Feature", "properties": { "builder": "American Legend Homes", "community": "Hilltop 55+ at Inspiration 62s", "project_type": "Single Family", "status": "Active", "price_min_raw": 757990, "price_max_raw": 961382, "sf_min": 1981, "sf_max": 2559, "price_range": "$757,990 – $961,382", "sf_range": "1,981 – 2,559 SF", "city": "Aurora", "county": "Arapahoe", "state": "CO", "zip": 80016 }, "geometry": { "type": "Point", "coordinates": [ -104.721308, 39.564256 ] } },
{ "type": "Feature", "properties": { "builder": "Koelbel Communities", "community": "Montmere at Autrey Shores", "project_type": "Duplex", "status": "Active", "price_min_raw": 774900, "price_max_raw": 1591865, "sf_min": 1847, "sf_max": 2979, "price_range": "$774,900 – $1,591,865", "sf_range": "1,847 – 2,979 SF", "city": "Superior", "county": "Broomfield", "state": "CO", "zip": 80027 }, "geometry": { "type": "Point", "coordinates": [ -105.14191, 39.929102 ] } },
{ "type": "Feature", "properties": { "builder": "Richmond American Homes", "community": "Buckley Yard", "project_type": "Single Family", "status": "Active", "price_min_raw": 444950, "price_max_raw": 644950, "sf_min": 1438, "sf_max": 2690, "price_range": "$444,950 – $644,950", "sf_range": "1,438 – 2,690 SF", "city": "Aurora", "county": "Arapahoe", "state": "CO", "zip": 80017 }, "geometry": { "type": "Point", "coordinates": [ -104.786156, 39.706746 ] } },
{ "type": "Feature", "properties": { "builder": "Meritage Homes", "community": "Murphy Creek", "project_type": "Single Family", "status": "Active", "price_min_raw": 522990, "price_max_raw": 704990, "sf_min": 1565, "sf_max": 2780, "price_range": "$522,990 – $704,990", "sf_range": "1,565 – 2,780 SF", "city": "Aurora", "county": "Arapahoe", "state": "CO", "zip": 80018 }, "geometry": { "type": "Point", "coordinates": [ -104.709211, 39.681637 ] } },
{ "type": "Feature", "properties": { "builder": "David Weekley Homes", "community": "Revel Crossing at Wolf Ranch - The Panorama Collection", "project_type": null, "status": "Active", "price_min_raw": 568990, "price_max_raw": 808818, "sf_min": 2005, "sf_max": 3194, "price_range": "$568,990 – $808,818", "sf_range": "2,005 – 3,194 SF", "city": "Colorado Springs", "county": "El Paso", "state": "CO", "zip": 80924 }, "geometry": { "type": "Point", "coordinates": [ -104.709588, 38.960779 ] } },
{ "type": "Feature", "properties": { "builder": "Lennar", "community": "Red Rocks Ranch - The Grand Collection", "project_type": "Single Family", "status": "Active", "price_min_raw": 1008900, "price_max_raw": 1243900, "sf_min": 2175, "sf_max": 3882, "price_range": "$1,008,900 – $1,243,900", "sf_range": "2,175 – 3,882 SF", "city": "Morrison", "county": "Jefferson", "state": "CO", "zip": 80465 }, "geometry": { "type": "Point", "coordinates": [ -105.181, 39.6611 ] } },
{ "type": "Feature", "properties": { "builder": "Richmond American Homes", "community": "Prairie Song", "project_type": "Single Family", "status": "Active", "price_min_raw": 499950, "price_max_raw": 618950, "sf_min": 1521, "sf_max": 2665, "price_range": "$499,950 – $618,950", "sf_range": "1,521 – 2,665 SF", "city": "Windsor", "county": "Weld", "state": "CO", "zip": 80550 }, "geometry": { "type": "Point", "coordinates": [ -104.911822, 40.501417 ] } },
{ "type": "Feature", "properties": { "builder": "Trumark Homes", "community": "Pelican Shores at Water Valley", "project_type": "Single Family", "status": "Active", "price_min_raw": 660000, "price_max_raw": 799900, "sf_min": 2130, "sf_max": 3200, "price_range": "$660,000 – $799,900", "sf_range": "2,130 – 3,200 SF", "city": "Windsor", "county": "Weld", "state": "CO", "zip": 80550 }, "geometry": { "type": "Point", "coordinates": [ -104.911151, 40.452046 ] } },
{ "type": "Feature", "properties": { "builder": "Classic Homes", "community": "Wolf Ranch", "project_type": "Not Specified", "status": "Active", "price_min_raw": 416100, "price_max_raw": 1171401, "sf_min": 1058, "sf_max": 5642, "price_range": "$416,100 – $1,171,401", "sf_range": "1,058 – 5,642 SF", "city": "Colorado Springs", "county": "El Paso", "state": "CO", "zip": 80924 }, "geometry": { "type": "Point", "coordinates": [ -104.724704, 38.972274 ] } },
{ "type": "Feature", "properties": { "builder": "Tri Pointe Homes", "community": "Reunion Ridge", "project_type": "Single Family", "status": "Active", "price_min_raw": 604900, "price_max_raw": 749900, "sf_min": 1882, "sf_max": 2864, "price_range": "$604,900 – $749,900", "sf_range": "1,882 – 2,864 SF", "city": "Commerce City", "county": "Adams", "state": "CO", "zip": 80022 }, "geometry": { "type": "Point", "coordinates": [ -104.831184, 39.88256 ] } },
{ "type": "Feature", "properties": { "builder": "Vantage Homes", "community": "Retreat at TimberRidge", "project_type": "Not Specified", "status": "Active", "price_min_raw": 563900, "price_max_raw": 899900, "sf_min": 1654, "sf_max": 5581, "price_range": "$563,900 – $899,900", "sf_range": "1,654 – 5,581 SF", "city": "Colorado Springs", "county": "El Paso", "state": "CO", "zip": 80908 }, "geometry": { "type": "Point", "coordinates": [ -104.66282, 38.97691 ] } },
{ "type": "Feature", "properties": { "builder": "Richmond American Homes", "community": "Creekside Village", "project_type": "Single Family", "status": "Active", "price_min_raw": 534950, "price_max_raw": 834950, "sf_min": 1420, "sf_max": 3313, "price_range": "$534,950 – $834,950", "sf_range": "1,420 – 3,313 SF", "city": "Thornton", "county": "Adams", "state": "CO", "zip": 80602 }, "geometry": { "type": "Point", "coordinates": [ -104.902968, 39.928057 ] } },
{ "type": "Feature", "properties": { "builder": "Taylor Morrison", "community": "Trailstone Destination Collection", "project_type": "Single Family", "status": "Active", "price_min_raw": 895999, "price_max_raw": 1230049, "sf_min": 2406, "sf_max": 4950, "price_range": "$895,999 – $1,230,049", "sf_range": "2,406 – 4,950 SF", "city": "Arvada", "county": "Jefferson", "state": "CO", "zip": 80007 }, "geometry": { "type": "Point", "coordinates": [ -105.1837, 39.8653 ] } },
{ "type": "Feature", "properties": { "builder": "Toll Brothers", "community": "Heights at Downtown Superior", "project_type": "Townhome", "status": "Active", "price_min_raw": 684995, "price_max_raw": 910000, "sf_min": 1772, "sf_max": 2431, "price_range": "$684,995 – $910,000", "sf_range": "1,772 – 2,431 SF", "city": "Superior", "county": "Boulder", "state": "CO", "zip": 80027 }, "geometry": { "type": "Point", "coordinates": [ -105.157691, 39.949231 ] } },
{ "type": "Feature", "properties": { "builder": "Richmond American Homes", "community": "Sierra at Ascent Village", "project_type": "Single Family", "status": "Active", "price_min_raw": 514950, "price_max_raw": 939950, "sf_min": 1430, "sf_max": 4660, "price_range": "$514,950 – $939,950", "sf_range": "1,430 – 4,660 SF", "city": "Littleton", "county": "Douglas", "state": "CO", "zip": 80125 }, "geometry": { "type": "Point", "coordinates": [ -105.034712, 39.487064 ] } },
{ "type": "Feature", "properties": { "builder": "Century Communities", "community": "The Townes at Skyline Ridge", "project_type": null, "status": "Active", "price_min_raw": 449990, "price_max_raw": 589990, "sf_min": 1291, "sf_max": 1707, "price_range": "$449,990 – $589,990", "sf_range": "1,291 – 1,707 SF", "city": "Castle Pines", "county": "Douglas", "state": "CO", "zip": 80108 }, "geometry": { "type": "Point", "coordinates": [ -104.875944, 39.463536 ] } },
{ "type": "Feature", "properties": { "builder": "David Weekley Homes", "community": "Revel Crossing at Wolf Ranch - The Ascent Collection", "project_type": null, "status": "Active", "price_min_raw": 450990, "price_max_raw": 558454, "sf_min": 1649, "sf_max": 1907, "price_range": "$450,990 – $558,454", "sf_range": "1,649 – 1,907 SF", "city": "Colorado Springs", "county": "El Paso", "state": "CO", "zip": 80924 }, "geometry": { "type": "Point", "coordinates": [ -104.709588, 38.960779 ] } },
{ "type": "Feature", "properties": { "builder": "JM Weston Homes", "community": "Sage Meadows II at Wolf Ranch", "project_type": "Townhouse", "status": "Active", "price_min_raw": 413000, "price_max_raw": 497845, "sf_min": 1451, "sf_max": 1858, "price_range": "$413,000 – $497,845", "sf_range": "1,451 – 1,858 SF", "city": "Colorado Springs", "county": "El Paso", "state": "CO", "zip": 80924 }, "geometry": { "type": "Point", "coordinates": [ -104.706831, 38.976576 ] } },
{ "type": "Feature", "properties": { "builder": "Challenger Homes", "community": "Falcon Meadows at Bent Grass", "project_type": null, "status": "Active", "price_min_raw": 412700, "price_max_raw": 558400, "sf_min": 1367, "sf_max": 3018, "price_range": "$412,700 – $558,400", "sf_range": "1,367 – 3,018 SF", "city": "Peyton", "county": "El Paso", "state": "CO", "zip": 80831 }, "geometry": { "type": "Point", "coordinates": [ -104.61235, 38.948396 ] } },
{ "type": "Feature", "properties": { "builder": "Oakwood Homes", "community": "Reunion", "project_type": "Not Specified", "status": "Active", "price_min_raw": 329900, "price_max_raw": 520990, "sf_min": 0, "sf_max": 2202, "price_range": "$329,900 – $520,990", "sf_range": "0 – 2,202 SF", "city": "Commerce City", "county": "Adams", "state": "CO", "zip": 80022 }, "geometry": { "type": "Point", "coordinates": [ -104.782751, 39.888782 ] } },
{ "type": "Feature", "properties": { "builder": "Richmond American Homes", "community": "Settler's Crossing", "project_type": "Single Family", "status": "Active", "price_min_raw": 489950, "price_max_raw": 564950, "sf_min": 1446, "sf_max": 2250, "price_range": "$489,950 – $564,950", "sf_range": "1,446 – 2,250 SF", "city": "Commerce City", "county": "Adams", "state": "CO", "zip": 80022 }, "geometry": { "type": "Point", "coordinates": [ -104.766561, 39.871465 ] } },
{ "type": "Feature", "properties": { "builder": "Classic Homes", "community": "Homestead at Sterling Ranch", "project_type": "Not Specified", "status": "Active", "price_min_raw": 477200, "price_max_raw": 858900, "sf_min": 2028, "sf_max": 6187, "price_range": "$477,200 – $858,900", "sf_range": "2,028 – 6,187 SF", "city": "Colorado Springs", "county": "El Paso", "state": "CO", "zip": 80908 }, "geometry": { "type": "Point", "coordinates": [ -104.674343, 38.969914 ] } },
{ "type": "Feature", "properties": { "builder": "Campbell Homes", "community": "Cordera", "project_type": "Not Specified", "status": "Active", "price_min_raw": 702590, "price_max_raw": 2147483647, "sf_min": 3176, "sf_max": 4534, "price_range": "$702,590 – $2,147,483,647", "sf_range": "3,176 – 4,534 SF", "city": "Colorado Springs", "county": "El Paso", "state": "CO", "zip": 80924 }, "geometry": { "type": "Point", "coordinates": [ -104.740033, 38.980605 ] } },
{ "type": "Feature", "properties": { "builder": "Richmond American Homes", "community": "Independence", "project_type": "Single Family", "status": "Active", "price_min_raw": 490950, "price_max_raw": 749950, "sf_min": 1720, "sf_max": 3950, "price_range": "$490,950 – $749,950", "sf_range": "1,720 – 3,950 SF", "city": "Elizabeth", "county": "Elbert", "state": "CO", "zip": 80107 }, "geometry": { "type": "Point", "coordinates": [ -104.6439, 39.4361 ] } },
{ "type": "Feature", "properties": { "builder": "Richmond American Homes", "community": "Barefoot Lakes", "project_type": "Single Family", "status": "Active", "price_min_raw": 789950, "price_max_raw": 949950, "sf_min": 3481, "sf_max": 4800, "price_range": "$789,950 – $949,950", "sf_range": "3,481 – 4,800 SF", "city": "Firestone", "county": "Denton", "state": "CO", "zip": 80504 }, "geometry": { "type": "Point", "coordinates": [ -104.948303, 40.189479 ] } },
{ "type": "Feature", "properties": { "builder": "Oakwood Homes", "community": "Erie Highlands", "project_type": "Carriage House", "status": "Active", "price_min_raw": 500900, "price_max_raw": 608670, "sf_min": 0, "sf_max": 2315, "price_range": "$500,900 – $608,670", "sf_range": "0 – 2,315 SF", "city": "Erie", "county": "Weld", "state": "CO", "zip": 80516 }, "geometry": { "type": "Point", "coordinates": [ -105.02737, 40.041683 ] } },
{ "type": "Feature", "properties": { "builder": "Richmond American Homes", "community": "The Aurora Highlands", "project_type": "Single Family", "status": "Active", "price_min_raw": 524950, "price_max_raw": 849950, "sf_min": 1530, "sf_max": 4720, "price_range": "$524,950 – $849,950", "sf_range": "1,530 – 4,720 SF", "city": "Aurora", "county": "Adams", "state": "CO", "zip": 80019 }, "geometry": { "type": "Point", "coordinates": [ -104.705603, 39.773206 ] } },
{ "type": "Feature", "properties": { "builder": "LGI Homes", "community": "Bennett Ranch", "project_type": "Not Specified", "status": "Active", "price_min_raw": 499900, "price_max_raw": 580900, "sf_min": 1273, "sf_max": 1853, "price_range": "$499,900 – $580,900", "sf_range": "1,273 – 1,853 SF", "city": "Bennett", "county": "Adams", "state": "CO", "zip": 80102 }, "geometry": { "type": "Point", "coordinates": [ -104.422016, 39.764006 ] } },
{ "type": "Feature", "properties": { "builder": "Lennar", "community": "Sterling Ranch - The Parkside Collection", "project_type": "Single Family", "status": "Active", "price_min_raw": 479900, "price_max_raw": 584900, "sf_min": 1099, "sf_max": 1623, "price_range": "$479,900 – $584,900", "sf_range": "1,099 – 1,623 SF", "city": "Littleton", "county": "Douglas", "state": "CO", "zip": 80125 }, "geometry": { "type": "Point", "coordinates": [ -105.0302, 39.491 ] } },
{ "type": "Feature", "properties": { "builder": "Century Communities", "community": "Prairie Song", "project_type": null, "status": "Active", "price_min_raw": 499990, "price_max_raw": 629990, "sf_min": 1661, "sf_max": 2767, "price_range": "$499,990 – $629,990", "sf_range": "1,661 – 2,767 SF", "city": "Windsor", "county": "Weld", "state": "CO", "zip": 80550 }, "geometry": { "type": "Point", "coordinates": [ -104.926607, 40.508508 ] } },
{ "type": "Feature", "properties": { "builder": "Thrive Home Builders", "community": "Sonders Patio Homes by Thrive Home Builders", "project_type": "Not Specified", "status": "Active", "price_min_raw": 663900, "price_max_raw": 975026, "sf_min": 0, "sf_max": 4316, "price_range": "$663,900 – $975,026", "sf_range": "0 – 4,316 SF", "city": "Fort Collins", "county": "Larimer", "state": "CO", "zip": 80524 }, "geometry": { "type": "Point", "coordinates": [ -105.049483, 40.629635 ] } },
{ "type": "Feature", "properties": { "builder": "Century Communities", "community": "Legato", "project_type": null, "status": "Active", "price_min_raw": 477990, "price_max_raw": 528320, "sf_min": 1497, "sf_max": 2239, "price_range": "$477,990 – $528,320", "sf_range": "1,497 – 2,239 SF", "city": "Commerce City", "county": "Adams", "state": "CO", "zip": 80022 }, "geometry": { "type": "Point", "coordinates": [ -104.767081, 39.864561 ] } },
{ "type": "Feature", "properties": { "builder": "Celebrity Homes", "community": "Pradera", "project_type": "Not Specified", "status": "Active", "price_min_raw": 1299950, "price_max_raw": 1599950, "sf_min": 2697, "sf_max": 4182, "price_range": "$1,299,950 – $1,599,950", "sf_range": "2,697 – 4,182 SF", "city": "Parker", "county": "Douglas", "state": "CO", "zip": 80134 }, "geometry": { "type": "Point", "coordinates": [ -104.799628, 39.438389 ] } },
{ "type": "Feature", "properties": { "builder": "Challenger Homes", "community": "Westcreek at Wolf Ranch", "project_type": null, "status": "Active", "price_min_raw": 576400, "price_max_raw": 824900, "sf_min": 1932, "sf_max": 4714, "price_range": "$576,400 – $824,900", "sf_range": "1,932 – 4,714 SF", "city": "Colorado Springs", "county": "El Paso", "state": "CO", "zip": 80924 }, "geometry": { "type": "Point", "coordinates": [ -104.712811, 38.955372 ] } },
{ "type": "Feature", "properties": { "builder": "Richmond American Homes", "community": "Paint Brush Hills", "project_type": "Single Family", "status": "Active", "price_min_raw": 500950, "price_max_raw": 577950, "sf_min": 1720, "sf_max": 3100, "price_range": "$500,950 – $577,950", "sf_range": "1,720 – 3,100 SF", "city": "Peyton", "county": "El Paso", "state": "CO", "zip": 80831 }, "geometry": { "type": "Point", "coordinates": [ -104.632223, 38.983132 ] } },
{ "type": "Feature", "properties": { "builder": "Campbell Homes", "community": "Jackson Creek North", "project_type": "Not Specified", "status": "Coming Soon", "price_min_raw": 799590, "price_max_raw": 977335, "sf_min": 3049, "sf_max": 4534, "price_range": "$799,590 – $977,335", "sf_range": "3,049 – 4,534 SF", "city": "Monument", "county": "El Paso", "state": "CO", "zip": 80132 }, "geometry": { "type": "Point", "coordinates": [ -104.838663, 39.07267 ] } },
{ "type": "Feature", "properties": { "builder": "Century Communities", "community": "Timnath Lakes", "project_type": null, "status": "Active", "price_min_raw": 576990, "price_max_raw": 671700, "sf_min": 1661, "sf_max": 2767, "price_range": "$576,990 – $671,700", "sf_range": "1,661 – 2,767 SF", "city": "Timnath", "county": "Larimer", "state": "CO", "zip": 80547 }, "geometry": { "type": "Point", "coordinates": [ -104.974297, 40.524601 ] } },
{ "type": "Feature", "properties": { "builder": "Lennar", "community": "Harvest Ridge - The Parkside Collection", "project_type": "Single Family", "status": "Active", "price_min_raw": 383900, "price_max_raw": 479900, "sf_min": 1099, "sf_max": 1617, "price_range": "$383,900 – $479,900", "sf_range": "1,099 – 1,617 SF", "city": "Aurora", "county": "Arapahoe", "state": "CO", "zip": 80018 }, "geometry": { "type": "Point", "coordinates": [ -104.7006, 39.6803 ] } },
{ "type": "Feature", "properties": { "builder": "Koelbel Communities", "community": "Prelude at Tava Waters", "project_type": "Townhome", "status": "Active", "price_min_raw": 522488, "price_max_raw": 975823, "sf_min": 0, "sf_max": 2060, "price_range": "$522,488 – $975,823", "sf_range": "0 – 2,060 SF", "city": "Denver", "county": "Denver", "state": "CO", "zip": 80247 }, "geometry": { "type": "Point", "coordinates": [ -104.890642, 39.701112 ] } },
{ "type": "Feature", "properties": { "builder": "Oakwood Homes", "community": "The Reserve", "project_type": "Not Specified", "status": "Active", "price_min_raw": 464549, "price_max_raw": 554776, "sf_min": 1409, "sf_max": 1877, "price_range": "$464,549 – $554,776", "sf_range": "1,409 – 1,877 SF", "city": "Aurora", "county": "Adams", "state": "CO", "zip": 80019 }, "geometry": { "type": "Point", "coordinates": [ -104.730061, 39.78188 ] } },
{ "type": "Feature", "properties": { "builder": "Lennar", "community": "Independence - The Pioneer Collection", "project_type": "Single Family", "status": "Active", "price_min_raw": 524900, "price_max_raw": 719900, "sf_min": 1366, "sf_max": 2377, "price_range": "$524,900 – $719,900", "sf_range": "1,366 – 2,377 SF", "city": "Elizabeth", "county": "Elbert", "state": "CO", "zip": 80107 }, "geometry": { "type": "Point", "coordinates": [ -104.6443, 39.4367 ] } },
{ "type": "Feature", "properties": { "builder": "Classic Homes", "community": "Flying Horse", "project_type": "Not Specified", "status": "Active", "price_min_raw": 672400, "price_max_raw": 1199900, "sf_min": 3196, "sf_max": 6187, "price_range": "$672,400 – $1,199,900", "sf_range": "3,196 – 6,187 SF", "city": "Colorado Springs", "county": "El Paso", "state": "CO", "zip": 80921 }, "geometry": { "type": "Point", "coordinates": [ -104.781817, 39.009612 ] } },
{ "type": "Feature", "properties": { "builder": "Landsea Homes", "community": "Highlands Preserve", "project_type": "Single Family", "status": "Active", "price_min_raw": 537950, "price_max_raw": 740950, "sf_min": 1682, "sf_max": 4641, "price_range": "$537,950 – $740,950", "sf_range": "1,682 – 4,641 SF", "city": "Mead", "county": "Weld", "state": "CO", "zip": 80542 }, "geometry": { "type": "Point", "coordinates": [ -104.989433, 40.247459 ] } },
{ "type": "Feature", "properties": { "builder": "SLC Homes", "community": "Westerly", "project_type": "Not Specified", "status": "Active", "price_min_raw": 577900, "price_max_raw": 1092400, "sf_min": 0, "sf_max": 4055, "price_range": "$577,900 – $1,092,400", "sf_range": "0 – 4,055 SF", "city": "Erie", "county": "Weld", "state": "CO", "zip": 80516 }, "geometry": { "type": "Point", "coordinates": [ -105.01207, 40.041823 ] } },
{ "type": "Feature", "properties": { "builder": "Toll Brothers", "community": "Edge at Erie Town Center", "project_type": "Single Family", "status": "Active", "price_min_raw": 726995, "price_max_raw": 791995, "sf_min": 1980, "sf_max": 2849, "price_range": "$726,995 – $791,995", "sf_range": "1,980 – 2,849 SF", "city": "Erie", "county": "Weld", "state": "CO", "zip": 80516 }, "geometry": { "type": "Point", "coordinates": [ -105.059057, 40.033933 ] } },
{ "type": "Feature", "properties": { "builder": "Pulte Homes", "community": "Painted Prairie", "project_type": "Single Family", "status": "Active", "price_min_raw": 459990, "price_max_raw": 579990, "sf_min": 1651, "sf_max": 2069, "price_range": "$459,990 – $579,990", "sf_range": "1,651 – 2,069 SF", "city": "Aurora", "county": "Arapahoe", "state": "CO", "zip": 80019 }, "geometry": { "type": "Point", "coordinates": [ -104.738848, 39.811775 ] } },
{ "type": "Feature", "properties": { "builder": "Classic Homes", "community": "TimberRidge", "project_type": "Not Specified", "status": "Active", "price_min_raw": 562500, "price_max_raw": 1090025, "sf_min": 2766, "sf_max": 6187, "price_range": "$562,500 – $1,090,025", "sf_range": "2,766 – 6,187 SF", "city": "Colorado Springs", "county": "El Paso", "state": "CO", "zip": 80908 }, "geometry": { "type": "Point", "coordinates": [ -104.662695, 38.976604 ] } },
{ "type": "Feature", "properties": { "builder": "KB Home", "community": "Terrain Oak Valley", "project_type": "Single Family", "status": "Active", "price_min_raw": 644990, "price_max_raw": 820000, "sf_min": 1719, "sf_max": 3054, "price_range": "$644,990 – $820,000", "sf_range": "1,719 – 3,054 SF", "city": "Castle Rock", "county": "Douglas", "state": "CO", "zip": 80108 }, "geometry": { "type": "Point", "coordinates": [ -104.818078, 39.385556 ] } },
{ "type": "Feature", "properties": { "builder": "Tri Pointe Homes", "community": "Ensemble at The Aurora Highlands", "project_type": "Single Family", "status": "Active", "price_min_raw": 636900, "price_max_raw": 974900, "sf_min": 1906, "sf_max": 3862, "price_range": "$636,900 – $974,900", "sf_range": "1,906 – 3,862 SF", "city": "Aurora", "county": "Arapahoe", "state": "CO", "zip": 80019 }, "geometry": { "type": "Point", "coordinates": [ -104.698612, 39.764106 ] } },
{ "type": "Feature", "properties": { "builder": "Taylor Morrison", "community": "Trailstone Town Collection", "project_type": "Single Family", "status": "Active", "price_min_raw": 644999, "price_max_raw": 798990, "sf_min": 1661, "sf_max": 2823, "price_range": "$644,999 – $798,990", "sf_range": "1,661 – 2,823 SF", "city": "Arvada", "county": "Jefferson", "state": "CO", "zip": 80007 }, "geometry": { "type": "Point", "coordinates": [ -105.18916, 39.866819 ] } },
{ "type": "Feature", "properties": { "builder": "David Weekley Homes", "community": "Revel Crossing at Wolf Ranch - The Outlook Collection", "project_type": null, "status": "Close Out", "price_min_raw": 530990, "price_max_raw": 638986, "sf_min": 1716, "sf_max": 3345, "price_range": "$530,990 – $638,986", "sf_range": "1,716 – 3,345 SF", "city": "Colorado Springs", "county": "El Paso", "state": "CO", "zip": 80924 }, "geometry": { "type": "Point", "coordinates": [ -104.709588, 38.960779 ] } },
{ "type": "Feature", "properties": { "builder": "Mayberry Communities", "community": "Mayberry", "project_type": "Not Specified", "status": "Active", "price_min_raw": 388825, "price_max_raw": 639875, "sf_min": 1608, "sf_max": 3247, "price_range": "$388,825 – $639,875", "sf_range": "1,608 – 3,247 SF", "city": "Ellicott", "county": "El Paso", "state": "CO", "zip": 80808 }, "geometry": { "type": "Point", "coordinates": [ -104.421613, 38.836471 ] } },
{ "type": "Feature", "properties": { "builder": "Landmark Homes - CO", "community": "Highlands at Fox Hill", "project_type": "Condominium", "status": "Active", "price_min_raw": 389900, "price_max_raw": 659900, "sf_min": 876, "sf_max": 2444, "price_range": "$389,900 – $659,900", "sf_range": "876 – 2,444 SF", "city": "Longmont", "county": "Boulder", "state": "CO", "zip": 80504 }, "geometry": { "type": "Point", "coordinates": [ -105.063813, 40.163259 ] } },
{ "type": "Feature", "properties": { "builder": "Richmond American Homes", "community": "Vista Pines at Crystal Valley", "project_type": "Single Family", "status": "Active", "price_min_raw": 811950, "price_max_raw": 1199950, "sf_min": 2320, "sf_max": 6170, "price_range": "$811,950 – $1,199,950", "sf_range": "2,320 – 6,170 SF", "city": "Castle Rock", "county": "Douglas", "state": "CO", "zip": 80104 }, "geometry": { "type": "Point", "coordinates": [ -104.842309, 39.329257 ] } },
{ "type": "Feature", "properties": { "builder": "Meritage Homes", "community": "Lake Bluff", "project_type": "Single Family", "status": "Active", "price_min_raw": 424990, "price_max_raw": 489990, "sf_min": 1617, "sf_max": 2317, "price_range": "$424,990 – $489,990", "sf_range": "1,617 – 2,317 SF", "city": "Greeley", "county": "Weld", "state": "CO", "zip": 80631 }, "geometry": { "type": "Point", "coordinates": [ -104.7871, 40.396264 ] } },
{ "type": "Feature", "properties": { "builder": "Taylor Morrison", "community": "The Town Collection at Independence", "project_type": "Single Family", "status": "Active", "price_min_raw": 563999, "price_max_raw": 2147483647, "sf_min": 1694, "sf_max": 3518, "price_range": "$563,999 – $2,147,483,647", "sf_range": "1,694 – 3,518 SF", "city": "Elizabeth", "county": "Elbert", "state": "CO", "zip": 80107 }, "geometry": { "type": "Point", "coordinates": [ -104.646217, 39.439659 ] } },
{ "type": "Feature", "properties": { "builder": "Richmond American Homes", "community": "Peakview at Ascent Village", "project_type": "Single Family", "status": "Active", "price_min_raw": 1009950, "price_max_raw": 1319950, "sf_min": 2490, "sf_max": 6475, "price_range": "$1,009,950 – $1,319,950", "sf_range": "2,490 – 6,475 SF", "city": "Littleton", "county": "Douglas", "state": "CO", "zip": 80125 }, "geometry": { "type": "Point", "coordinates": [ -105.031654, 39.490061 ] } },
{ "type": "Feature", "properties": { "builder": "Lennar", "community": "Green Valley Ranch Active Adult - The Pines Collection", "project_type": "Single Family", "status": "Active", "price_min_raw": 499900, "price_max_raw": 597900, "sf_min": 1366, "sf_max": 1760, "price_range": "$499,900 – $597,900", "sf_range": "1,366 – 1,760 SF", "city": "Aurora", "county": "Arapahoe", "state": "CO", "zip": 80019 }, "geometry": { "type": "Point", "coordinates": [ -104.7293, 39.7705 ] } },
{ "type": "Feature", "properties": { "builder": "Brookfield Residential", "community": "Horizon Townhomes Portfolio at Midtown", "project_type": "Townhome", "status": "Active", "price_min_raw": 540114, "price_max_raw": 881472, "sf_min": 1491, "sf_max": 2632, "price_range": "$540,114 – $881,472", "sf_range": "1,491 – 2,632 SF", "city": "Denver", "county": "Adams", "state": "CO", "zip": 80221 }, "geometry": { "type": "Point", "coordinates": [ -105.016, 39.82037 ] } },
{ "type": "Feature", "properties": { "builder": "LGI Homes", "community": "Second Creek Farm", "project_type": "Not Specified", "status": "Active", "price_min_raw": 531900, "price_max_raw": 616900, "sf_min": 1308, "sf_max": 2639, "price_range": "$531,900 – $616,900", "sf_range": "1,308 – 2,639 SF", "city": "Commerce City", "county": "Adams", "state": "CO", "zip": 80022 }, "geometry": { "type": "Point", "coordinates": [ -104.774927, 39.878463 ] } },
{ "type": "Feature", "properties": { "builder": "Challenger Homes", "community": "The Townes at Cumbre Vista", "project_type": null, "status": "Active", "price_min_raw": 399595, "price_max_raw": 466900, "sf_min": 1566, "sf_max": 2305, "price_range": "$399,595 – $466,900", "sf_range": "1,566 – 2,305 SF", "city": "Colorado Springs", "county": "El Paso", "state": "CO", "zip": 80924 }, "geometry": { "type": "Point", "coordinates": [ -104.713668, 38.945157 ] } },
{ "type": "Feature", "properties": { "builder": "Taylor Morrison", "community": "Sterling Ranch Ascent Village", "project_type": "Single Family", "status": "Active", "price_min_raw": 636999, "price_max_raw": 2147483647, "sf_min": 1694, "sf_max": 3499, "price_range": "$636,999 – $2,147,483,647", "sf_range": "1,694 – 3,499 SF", "city": "Littleton", "county": "Douglas", "state": "CO", "zip": 80125 }, "geometry": { "type": "Point", "coordinates": [ -105.031576, 39.484535 ] } },
{ "type": "Feature", "properties": { "builder": "Richmond American Homes", "community": "Jackson Creek", "project_type": "Single Family", "status": "Active", "price_min_raw": 593950, "price_max_raw": 814950, "sf_min": 1720, "sf_max": 3760, "price_range": "$593,950 – $814,950", "sf_range": "1,720 – 3,760 SF", "city": "Monument", "county": "El Paso", "state": "CO", "zip": 80132 }, "geometry": { "type": "Point", "coordinates": [ -104.843744, 39.073903 ] } },
{ "type": "Feature", "properties": { "builder": "David Weekley Homes", "community": "Cloverleaf - Pinnacle Collection", "project_type": null, "status": "Active", "price_min_raw": 741990, "price_max_raw": 996555, "sf_min": 1849, "sf_max": 4294, "price_range": "$741,990 – $996,555", "sf_range": "1,849 – 4,294 SF", "city": "Monument", "county": "El Paso", "state": "CO", "zip": 80132 }, "geometry": { "type": "Point", "coordinates": [ -104.84573, 39.08147 ] } },
{ "type": "Feature", "properties": { "builder": "Challenger Homes", "community": "Home Place Ranch", "project_type": null, "status": "Active", "price_min_raw": 649900, "price_max_raw": 909900, "sf_min": 2386, "sf_max": 4752, "price_range": "$649,900 – $909,900", "sf_range": "2,386 – 4,752 SF", "city": "Monument", "county": "El Paso", "state": "CO", "zip": 80132 }, "geometry": { "type": "Point", "coordinates": [ -104.823611, 39.069444 ] } },
{ "type": "Feature", "properties": { "builder": "Challenger Homes", "community": "The Enclaves at Mountain Vista", "project_type": null, "status": "Active", "price_min_raw": 451900, "price_max_raw": 539760, "sf_min": 1690, "sf_max": 2342, "price_range": "$451,900 – $539,760", "sf_range": "1,690 – 2,342 SF", "city": "Colorado Springs", "county": "El Paso", "state": "CO", "zip": 80938 }, "geometry": { "type": "Point", "coordinates": [ -104.672217, 38.898283 ] } },
{ "type": "Feature", "properties": { "builder": "Lennar", "community": "Harvest Ridge - The Pioneer Collection", "project_type": "Single Family", "status": "Active", "price_min_raw": 579900, "price_max_raw": 628900, "sf_min": 1814, "sf_max": 2379, "price_range": "$579,900 – $628,900", "sf_range": "1,814 – 2,379 SF", "city": "Aurora", "county": "Douglas", "state": "CO", "zip": 80018 }, "geometry": { "type": "Point", "coordinates": [ -104.7031, 39.68 ] } },
{ "type": "Feature", "properties": { "builder": "Century Communities", "community": "Morgan Hill", "project_type": null, "status": "Active", "price_min_raw": 657990, "price_max_raw": 1095785, "sf_min": 2427, "sf_max": 4094, "price_range": "$657,990 – $1,095,785", "sf_range": "2,427 – 4,094 SF", "city": "Erie", "county": "Weld", "state": "CO", "zip": 80516 }, "geometry": { "type": "Point", "coordinates": [ -105.047636, 40.070514 ] } },
{ "type": "Feature", "properties": { "builder": "Lennar", "community": "Sunset Village - The Monarch Collection", "project_type": "Single Family", "status": "Active", "price_min_raw": 700900, "price_max_raw": 824900, "sf_min": 2004, "sf_max": 2798, "price_range": "$700,900 – $824,900", "sf_range": "2,004 – 2,798 SF", "city": "Erie", "county": "Weld", "state": "CO", "zip": 80516 }, "geometry": { "type": "Point", "coordinates": [ -105.0246, 40.0349 ] } },
{ "type": "Feature", "properties": { "builder": "Richmond American Homes", "community": "Villages at Prairie Center", "project_type": "Single Family", "status": "Close Out", "price_min_raw": 524950, "price_max_raw": 771950, "sf_min": 1740, "sf_max": 3140, "price_range": "$524,950 – $771,950", "sf_range": "1,740 – 3,140 SF", "city": "Brighton", "county": "Adams", "state": "CO", "zip": 80601 }, "geometry": { "type": "Point", "coordinates": [ -104.789076, 39.961676 ] } },
{ "type": "Feature", "properties": { "builder": "Classic Homes", "community": "Monument Junction", "project_type": "Not Specified", "status": "Grand Opening", "price_min_raw": 435600, "price_max_raw": 835000, "sf_min": 1058, "sf_max": 5642, "price_range": "$435,600 – $835,000", "sf_range": "1,058 – 5,642 SF", "city": "Monument", "county": "El Paso", "state": "CO", "zip": 80132 }, "geometry": { "type": "Point", "coordinates": [ -104.856594, 39.08855 ] } },
{ "type": "Feature", "properties": { "builder": "Journey Homes", "community": "Southridge", "project_type": "Not Specified", "status": "Active", "price_min_raw": 467840, "price_max_raw": 526190, "sf_min": 1208, "sf_max": 2334, "price_range": "$467,840 – $526,190", "sf_range": "1,208 – 2,334 SF", "city": "Johnstown", "county": "Weld", "state": "CO", "zip": 80534 }, "geometry": { "type": "Point", "coordinates": [ -104.927204, 40.337999 ] } },
{ "type": "Feature", "properties": { "builder": "Berkeley Homes", "community": "Painted Prairie", "project_type": "Not Specified", "status": "Grand Opening", "price_min_raw": 479900, "price_max_raw": 633550, "sf_min": 1588, "sf_max": 2462, "price_range": "$479,900 – $633,550", "sf_range": "1,588 – 2,462 SF", "city": "Aurora", "county": "Adams", "state": "CO", "zip": 80019 }, "geometry": { "type": "Point", "coordinates": [ -104.744089, 39.809924 ] } },
{ "type": "Feature", "properties": { "builder": "Landsea Homes", "community": "Spring Valley", "project_type": null, "status": "Active", "price_min_raw": 399950, "price_max_raw": 463900, "sf_min": 1151, "sf_max": 1643, "price_range": "$399,950 – $463,900", "sf_range": "1,151 – 1,643 SF", "city": "Longmont", "county": "Boulder", "state": "CO", "zip": 80504 }, "geometry": { "type": "Point", "coordinates": [ -105.105936, 40.203519 ] } },
{ "type": "Feature", "properties": { "builder": "Lennar", "community": "Eastcreek Farm - Paired Homes", "project_type": "Single Family", "status": "Active", "price_min_raw": 529900, "price_max_raw": 559900, "sf_min": 1474, "sf_max": 1867, "price_range": "$529,900 – $559,900", "sf_range": "1,474 – 1,867 SF", "city": "Thornton", "county": "Adams", "state": "CO", "zip": 80602 }, "geometry": { "type": "Point", "coordinates": [ -104.9561, 39.9736 ] } },
{ "type": "Feature", "properties": { "builder": "Shea Homes", "community": "Legends at Lyric", "project_type": "Single Family", "status": "Active", "price_min_raw": 836900, "price_max_raw": 1272485, "sf_min": 2078, "sf_max": 4430, "price_range": "$836,900 – $1,272,485", "sf_range": "2,078 – 4,430 SF", "city": "Lone Tree", "county": "Douglas", "state": "CO", "zip": 80134 }, "geometry": { "type": "Point", "coordinates": [ -104.856871, 39.515529 ] } },
{ "type": "Feature", "properties": { "builder": "Oakwood Homes", "community": "The Retreat at Banning Lewis Ranch", "project_type": "Not Specified", "status": "Active", "price_min_raw": 389999, "price_max_raw": 629999, "sf_min": 1246, "sf_max": 2085, "price_range": "$389,999 – $629,999", "sf_range": "1,246 – 2,085 SF", "city": "Colorado Springs", "county": "El Paso", "state": "CO", "zip": 80927 }, "geometry": { "type": "Point", "coordinates": [ -104.65984, 38.923382 ] } },
{ "type": "Feature", "properties": { "builder": "McStain Neighborhoods", "community": "Westerly", "project_type": "Not Specified", "status": "Active", "price_min_raw": 919900, "price_max_raw": 1889900, "sf_min": 2445, "sf_max": 4893, "price_range": "$919,900 – $1,889,900", "sf_range": "2,445 – 4,893 SF", "city": "Erie", "county": "Weld", "state": "CO", "zip": 80516 }, "geometry": { "type": "Point", "coordinates": [ -105.012206, 40.041389 ] } },
{ "type": "Feature", "properties": { "builder": "Epcon Communities", "community": "The Courtyards at Lupton Village", "project_type": "Single Family", "status": "Active", "price_min_raw": 485000, "price_max_raw": 575000, "sf_min": 1418, "sf_max": 2058, "price_range": "$485,000 – $575,000", "sf_range": "1,418 – 2,058 SF", "city": "Fort Lupton", "county": "Weld", "state": "CO", "zip": 80621 }, "geometry": { "type": "Point", "coordinates": [ -104.806022, 40.076979 ] } },
{ "type": "Feature", "properties": { "builder": "Trumark Homes", "community": "Duet at Sterling Ranch", "project_type": "Duplex", "status": "Active", "price_min_raw": 589900, "price_max_raw": 649900, "sf_min": 1720, "sf_max": 2028, "price_range": "$589,900 – $649,900", "sf_range": "1,720 – 2,028 SF", "city": "Littleton", "county": "Douglas", "state": "CO", "zip": 80125 }, "geometry": { "type": "Point", "coordinates": [ -105.031089, 39.489502 ] } },
{ "type": "Feature", "properties": { "builder": "Lennar", "community": "Sterling Ranch - The Skyline Collection", "project_type": "Single Family", "status": "Active", "price_min_raw": 649900, "price_max_raw": 734900, "sf_min": 1868, "sf_max": 2929, "price_range": "$649,900 – $734,900", "sf_range": "1,868 – 2,929 SF", "city": "Littleton", "county": "Douglas", "state": "CO", "zip": 80125 }, "geometry": { "type": "Point", "coordinates": [ -105.0302, 39.491 ] } },
{ "type": "Feature", "properties": { "builder": "KB Home", "community": "Sky Ranch Villas", "project_type": "Duplex", "status": "Active", "price_min_raw": 369990, "price_max_raw": 588000, "sf_min": 1468, "sf_max": 2702, "price_range": "$369,990 – $588,000", "sf_range": "1,468 – 2,702 SF", "city": "Watkins", "county": "Arapahoe", "state": "CO", "zip": 80137 }, "geometry": { "type": "Point", "coordinates": [ -104.654992, 39.726591 ] } },
{ "type": "Feature", "properties": { "builder": "LGI Homes", "community": "Wolf Creek Run", "project_type": "Not Specified", "status": "Active", "price_min_raw": 405900, "price_max_raw": 474900, "sf_min": 1005, "sf_max": 1572, "price_range": "$405,900 – $474,900", "sf_range": "1,005 – 1,572 SF", "city": "Strasburg", "county": "Adams", "state": "CO", "zip": 80136 }, "geometry": { "type": "Point", "coordinates": [ -104.341746, 39.757411 ] } },
{ "type": "Feature", "properties": { "builder": "Century Communities", "community": "Trails at Smoky Hill", "project_type": null, "status": "Active", "price_min_raw": 869990, "price_max_raw": 1244030, "sf_min": 2515, "sf_max": 3664, "price_range": "$869,990 – $1,244,030", "sf_range": "2,515 – 3,664 SF", "city": "Parker", "county": "Douglas", "state": "CO", "zip": 80138 }, "geometry": { "type": "Point", "coordinates": [ -104.682195, 39.561445 ] } },
{ "type": "Feature", "properties": { "builder": "Richmond American Homes", "community": "Brighton Crossings", "project_type": "Single Family", "status": "Active", "price_min_raw": 499950, "price_max_raw": 739950, "sf_min": 1740, "sf_max": 2970, "price_range": "$499,950 – $739,950", "sf_range": "1,740 – 2,970 SF", "city": "Brighton", "county": "Adams", "state": "CO", "zip": 80601 }, "geometry": { "type": "Point", "coordinates": [ -104.760386, 39.988996 ] } },
{ "type": "Feature", "properties": { "builder": "Toll Brothers", "community": "Regency at Montaine - Jefferson Collection", "project_type": "Single Family", "status": "Active", "price_min_raw": 645995, "price_max_raw": 820000, "sf_min": 1601, "sf_max": 1960, "price_range": "$645,995 – $820,000", "sf_range": "1,601 – 1,960 SF", "city": "Castle Rock", "county": "Douglas", "state": "CO", "zip": 80104 }, "geometry": { "type": "Point", "coordinates": [ -104.860018, 39.324568 ] } },
{ "type": "Feature", "properties": { "builder": "Meritage Homes", "community": "Buffalo Highlands: The Flora Collection", "project_type": "Single Family", "status": "Active", "price_min_raw": 519990, "price_max_raw": 593990, "sf_min": 1619, "sf_max": 2661, "price_range": "$519,990 – $593,990", "sf_range": "1,619 – 2,661 SF", "city": "Commerce City", "county": "Adams", "state": "CO", "zip": 80022 }, "geometry": { "type": "Point", "coordinates": [ -104.784293, 39.859083 ] } },
{ "type": "Feature", "properties": { "builder": "Shea Homes", "community": "Storytellers at Lyric", "project_type": "Single Family", "status": "Active", "price_min_raw": 743400, "price_max_raw": 975905, "sf_min": 2185, "sf_max": 3050, "price_range": "$743,400 – $975,905", "sf_range": "2,185 – 3,050 SF", "city": "Lone Tree", "county": "Douglas", "state": "CO", "zip": 80134 }, "geometry": { "type": "Point", "coordinates": [ -104.858137, 39.51625 ] } },
{ "type": "Feature", "properties": { "builder": "Lennar", "community": "Riano Ridge - The Grand Collection", "project_type": "Single Family", "status": "Active", "price_min_raw": 795900, "price_max_raw": 906200, "sf_min": 2762, "sf_max": 3162, "price_range": "$795,900 – $906,200", "sf_range": "2,762 – 3,162 SF", "city": "Loveland", "county": "Larimer", "state": "CO", "zip": 80538 }, "geometry": { "type": "Point", "coordinates": [ -105.1246, 40.4225 ] } },
{ "type": "Feature", "properties": { "builder": "Challenger Homes", "community": "Copper Chase at Sterling Ranch", "project_type": null, "status": "Active", "price_min_raw": 464900, "price_max_raw": 504900, "sf_min": 1690, "sf_max": 2342, "price_range": "$464,900 – $504,900", "sf_range": "1,690 – 2,342 SF", "city": "Colorado Springs", "county": "El Paso", "state": "CO", "zip": 80908 }, "geometry": { "type": "Point", "coordinates": [ -104.682046, 38.956856 ] } },
{ "type": "Feature", "properties": { "builder": "Brightland Homes", "community": "Westerly", "project_type": "Single Family", "status": "Active", "price_min_raw": 552900, "price_max_raw": 749657, "sf_min": 1276, "sf_max": 2403, "price_range": "$552,900 – $749,657", "sf_range": "1,276 – 2,403 SF", "city": "Erie", "county": "Weld", "state": "CO", "zip": 80516 }, "geometry": { "type": "Point", "coordinates": [ -105.012867, 40.042003 ] } },
{ "type": "Feature", "properties": { "builder": "Richmond American Homes", "community": "Kitchel Lake", "project_type": "Single Family", "status": "Active", "price_min_raw": 739950, "price_max_raw": 999950, "sf_min": 2347, "sf_max": 4800, "price_range": "$739,950 – $999,950", "sf_range": "2,347 – 4,800 SF", "city": "Timnath", "county": "Larimer", "state": "CO", "zip": 80547 }, "geometry": { "type": "Point", "coordinates": [ -104.97004, 40.568787 ] } },
{ "type": "Feature", "properties": { "builder": "Shea Homes", "community": "Gallery at The Canyons", "project_type": "Single Family", "status": "Active", "price_min_raw": 804990, "price_max_raw": 975353, "sf_min": 2078, "sf_max": 3671, "price_range": "$804,990 – $975,353", "sf_range": "2,078 – 3,671 SF", "city": "Castle Pines", "county": "Douglas", "state": "CO", "zip": 80108 }, "geometry": { "type": "Point", "coordinates": [ -104.865178, 39.458971 ] } },
{ "type": "Feature", "properties": { "builder": "New Home Co.", "community": "The Villas at Sterling Ranch", "project_type": "Not Specified", "status": "Active", "price_min_raw": 541990, "price_max_raw": 664420, "sf_min": 1642, "sf_max": 2192, "price_range": "$541,990 – $664,420", "sf_range": "1,642 – 2,192 SF", "city": "Littleton", "county": "Douglas", "state": "CO", "zip": 80125 }, "geometry": { "type": "Point", "coordinates": [ -105.031391, 39.489138 ] } },
{ "type": "Feature", "properties": { "builder": "Lennar", "community": "Newlin Crossing - The Monarch Collection", "project_type": "Single Family", "status": "Active", "price_min_raw": 706900, "price_max_raw": 812900, "sf_min": 1965, "sf_max": 3162, "price_range": "$706,900 – $812,900", "sf_range": "1,965 – 3,162 SF", "city": "Parker", "county": "Douglas", "state": "CO", "zip": 80134 }, "geometry": { "type": "Point", "coordinates": [ -104.8082, 39.5185 ] } },
{ "type": "Feature", "properties": { "builder": "Toll Brothers", "community": "Edge at Downtown Superior", "project_type": "Single Family", "status": "Active", "price_min_raw": 891995, "price_max_raw": 1100000, "sf_min": 1980, "sf_max": 3548, "price_range": "$891,995 – $1,100,000", "sf_range": "1,980 – 3,548 SF", "city": "Superior", "county": "Boulder", "state": "CO", "zip": 80027 }, "geometry": { "type": "Point", "coordinates": [ -105.157691, 39.949231 ] } },
{ "type": "Feature", "properties": { "builder": "Koelbel Mountain Communities", "community": "Rendezvous Colorado", "project_type": "Not Specified", "status": "Active", "price_min_raw": 1076390, "price_max_raw": 2893346, "sf_min": 0, "sf_max": 3361, "price_range": "$1,076,390 – $2,893,346", "sf_range": "0 – 3,361 SF", "city": "Winter Park", "county": "Grand", "state": "CO", "zip": 80482 }, "geometry": { "type": "Point", "coordinates": [ -105.78462, 39.91917 ] } },
{ "type": "Feature", "properties": { "builder": "Taylor Morrison", "community": "Macanta City Collection", "project_type": "Single Family", "status": "Active", "price_min_raw": 685999, "price_max_raw": 2147483647, "sf_min": 2061, "sf_max": 3596, "price_range": "$685,999 – $2,147,483,647", "sf_range": "2,061 – 3,596 SF", "city": "Castle Rock", "county": "Douglas", "state": "CO", "zip": 80108 }, "geometry": { "type": "Point", "coordinates": [ -104.821384, 39.424707 ] } },
{ "type": "Feature", "properties": { "builder": "KB Home", "community": "Turnberry", "project_type": "Single Family", "status": "Active", "price_min_raw": 499990, "price_max_raw": 604990, "sf_min": 1590, "sf_max": 2861, "price_range": "$499,990 – $604,990", "sf_range": "1,590 – 2,861 SF", "city": "Commerce City", "county": "Adams", "state": "CO", "zip": 80022 }, "geometry": { "type": "Point", "coordinates": [ -104.831848, 39.896863 ] } },
{ "type": "Feature", "properties": { "builder": "Trumark Homes", "community": "Kitchel Lake at Serratoga Falls", "project_type": "Single Family", "status": "Active", "price_min_raw": 695000, "price_max_raw": 913331, "sf_min": 2016, "sf_max": 3184, "price_range": "$695,000 – $913,331", "sf_range": "2,016 – 3,184 SF", "city": "Timnath", "county": "Larimer", "state": "CO", "zip": 80547 }, "geometry": { "type": "Point", "coordinates": [ -104.970634, 40.571132 ] } },
{ "type": "Feature", "properties": { "builder": "Taylor Morrison", "community": "Macanta Destination Collection", "project_type": "Single Family", "status": "Active", "price_min_raw": 777999, "price_max_raw": 1043990, "sf_min": 2383, "sf_max": 3794, "price_range": "$777,999 – $1,043,990", "sf_range": "2,383 – 3,794 SF", "city": "Castle Rock", "county": "Douglas", "state": "CO", "zip": 80108 }, "geometry": { "type": "Point", "coordinates": [ -104.831801, 39.419891 ] } },
{ "type": "Feature", "properties": { "builder": "David Weekley Homes", "community": "Kinston Mainstreet Townhomes", "project_type": null, "status": "Active", "price_min_raw": 436990, "price_max_raw": 489990, "sf_min": 1680, "sf_max": 1846, "price_range": "$436,990 – $489,990", "sf_range": "1,680 – 1,846 SF", "city": "Loveland", "county": "Larimer", "state": "CO", "zip": 80538 }, "geometry": { "type": "Point", "coordinates": [ -104.982148, 40.42084 ] } },
{ "type": "Feature", "properties": { "builder": "Journey Homes", "community": "Ravina", "project_type": "Not Specified", "status": "Active", "price_min_raw": 482840, "price_max_raw": 541190, "sf_min": 1208, "sf_max": 2334, "price_range": "$482,840 – $541,190", "sf_range": "1,208 – 2,334 SF", "city": "Severance", "county": "Weld", "state": "CO", "zip": 80550 }, "geometry": { "type": "Point", "coordinates": [ -104.864046, 40.508018 ] } },
{ "type": "Feature", "properties": { "builder": "Lennar", "community": "Brighton Crossings - The Pioneer Collection", "project_type": "Single Family", "status": "Active", "price_min_raw": 473900, "price_max_raw": 572900, "sf_min": 1366, "sf_max": 2377, "price_range": "$473,900 – $572,900", "sf_range": "1,366 – 2,377 SF", "city": "Brighton", "county": "Adams", "state": "CO", "zip": 80601 }, "geometry": { "type": "Point", "coordinates": [ -104.761, 39.9924 ] } },
{ "type": "Feature", "properties": { "builder": "American Legend Homes", "community": "Sterling Ranch 50s", "project_type": "Single Family", "status": "Active", "price_min_raw": 551990, "price_max_raw": 824878, "sf_min": 1694, "sf_max": 4222, "price_range": "$551,990 – $824,878", "sf_range": "1,694 – 4,222 SF", "city": "Colorado Springs", "county": "El Paso", "state": "CO", "zip": 80908 }, "geometry": { "type": "Point", "coordinates": [ -104.674873, 38.956357 ] } },
{ "type": "Feature", "properties": { "builder": "LGI Homes", "community": "Pierson Park", "project_type": "Not Specified", "status": "Active", "price_min_raw": 457900, "price_max_raw": 488900, "sf_min": 966, "sf_max": 1320, "price_range": "$457,900 – $488,900", "sf_range": "966 – 1,320 SF", "city": "Brighton", "county": "Adams", "state": "CO", "zip": 80601 }, "geometry": { "type": "Point", "coordinates": [ -104.735253, 39.997419 ] } },
{ "type": "Feature", "properties": { "builder": "American Legend Homes", "community": "Barefoot Lakes", "project_type": "Single Family", "status": "Active", "price_min_raw": 617990, "price_max_raw": 828715, "sf_min": 1816, "sf_max": 3236, "price_range": "$617,990 – $828,715", "sf_range": "1,816 – 3,236 SF", "city": "Firestone", "county": "Weld", "state": "CO", "zip": 80504 }, "geometry": { "type": "Point", "coordinates": [ -104.956736, 40.186079 ] } },
{ "type": "Feature", "properties": { "builder": "Richmond American Homes", "community": "Parkdale", "project_type": "Single Family", "status": "Active", "price_min_raw": 651950, "price_max_raw": 924950, "sf_min": 1750, "sf_max": 3230, "price_range": "$651,950 – $924,950", "sf_range": "1,750 – 3,230 SF", "city": "Lafayette", "county": "Boulder", "state": "CO", "zip": 80026 }, "geometry": { "type": "Point", "coordinates": [ -105.067451, 40.005081 ] } },
{ "type": "Feature", "properties": { "builder": "Century Communities", "community": "Meridian Ranch", "project_type": null, "status": "Active", "price_min_raw": 476990, "price_max_raw": 476990, "sf_min": 1993, "sf_max": 1993, "price_range": "$0 – $476,990", "sf_range": "0 – 1,993 SF", "city": "Falcon", "county": "El Paso", "state": "CO", "zip": 80831 }, "geometry": { "type": "Point", "coordinates": [ -104.578823, 38.983915 ] } },
{ "type": "Feature", "properties": { "builder": "Tralon Homes LLC", "community": "Jackson Creek North", "project_type": "Not Specified", "status": "Active", "price_min_raw": 0, "price_max_raw": 764950, "sf_min": 0, "sf_max": 3184, "price_range": "$0 – $764,950", "sf_range": "0 – 3,184 SF", "city": "Monument", "county": "El Paso", "state": "CO", "zip": 80132 }, "geometry": { "type": "Point", "coordinates": [ -104.845972, 39.074601 ] } },
{ "type": "Feature", "properties": { "builder": "Challenger Homes", "community": "Ascent at Woodmen Heights", "project_type": null, "status": "Active", "price_min_raw": 376900, "price_max_raw": 474900, "sf_min": 1108, "sf_max": 1949, "price_range": "$376,900 – $474,900", "sf_range": "1,108 – 1,949 SF", "city": "Colorado Springs", "county": "El Paso", "state": "CO", "zip": 80923 }, "geometry": { "type": "Point", "coordinates": [ -104.683279, 38.939698 ] } },
{ "type": "Feature", "properties": { "builder": "Shea Homes", "community": "Reflection at Solstice", "project_type": "Single Family", "status": "Active", "price_min_raw": 849900, "price_max_raw": 1036195, "sf_min": 2369, "sf_max": 4045, "price_range": "$849,900 – $1,036,195", "sf_range": "2,369 – 4,045 SF", "city": "Littleton", "county": "Douglas", "state": "CO", "zip": 80125 }, "geometry": { "type": "Point", "coordinates": [ -105.059043, 39.529151 ] } },
{ "type": "Feature", "properties": { "builder": "Lennar", "community": "Ledge Rock - The Monarch Collection", "project_type": "Single Family", "status": "Active", "price_min_raw": 536900, "price_max_raw": 663900, "sf_min": 1986, "sf_max": 2775, "price_range": "$536,900 – $663,900", "sf_range": "1,986 – 2,775 SF", "city": "Johnstown", "county": "Weld", "state": "CO", "zip": 80534 }, "geometry": { "type": "Point", "coordinates": [ -104.9618, 40.3302 ] } },
{ "type": "Feature", "properties": { "builder": "David Weekley Homes", "community": "Painted Prairie Cottage", "project_type": null, "status": "Active", "price_min_raw": 564990, "price_max_raw": 749990, "sf_min": 2278, "sf_max": 3856, "price_range": "$564,990 – $749,990", "sf_range": "2,278 – 3,856 SF", "city": "Aurora", "county": "Adams", "state": "CO", "zip": 80019 }, "geometry": { "type": "Point", "coordinates": [ -104.7358, 39.8059 ] } },
{ "type": "Feature", "properties": { "builder": "Lennar", "community": "Reunion - The Pioneer Collection", "project_type": "Single Family", "status": "Active", "price_min_raw": 574900, "price_max_raw": 643900, "sf_min": 1882, "sf_max": 2378, "price_range": "$574,900 – $643,900", "sf_range": "1,882 – 2,378 SF", "city": "Commerce City", "county": "Adams", "state": "CO", "zip": 80022 }, "geometry": { "type": "Point", "coordinates": [ -104.7929, 39.8967 ] } },
{ "type": "Feature", "properties": { "builder": "Taylor Morrison", "community": "The Aurora Highlands Horizon Collection", "project_type": "Single Family", "status": "Active", "price_min_raw": 473990, "price_max_raw": 546399, "sf_min": 1606, "sf_max": 2076, "price_range": "$473,990 – $546,399", "sf_range": "1,606 – 2,076 SF", "city": "Aurora", "county": "Arapahoe", "state": "CO", "zip": 80019 }, "geometry": { "type": "Point", "coordinates": [ -104.712212, 39.771173 ] } },
{ "type": "Feature", "properties": { "builder": "Richmond American Homes", "community": "Urban Collection at Palmer Village", "project_type": "Single Family", "status": "Active", "price_min_raw": 399950, "price_max_raw": 409950, "sf_min": 1430, "sf_max": 1470, "price_range": "$399,950 – $409,950", "sf_range": "1,430 – 1,470 SF", "city": "Colorado Springs", "county": "El Paso", "state": "CO", "zip": 80915 }, "geometry": { "type": "Point", "coordinates": [ -104.689959, 38.867289 ] } },
{ "type": "Feature", "properties": { "builder": "Lennar", "community": "Whisper Village - Parkside Collection", "project_type": "Single Family", "status": "Active", "price_min_raw": 468900, "price_max_raw": 618900, "sf_min": 1099, "sf_max": 1622, "price_range": "$468,900 – $618,900", "sf_range": "1,099 – 1,622 SF", "city": "Arvada", "county": "Jefferson", "state": "CO", "zip": 80005 }, "geometry": { "type": "Point", "coordinates": [ -105.1627, 39.8606 ] } },
{ "type": "Feature", "properties": { "builder": "Shea Homes", "community": "Horizon at Solstice", "project_type": "Single Family", "status": "Active", "price_min_raw": 715400, "price_max_raw": 967000, "sf_min": 1832, "sf_max": 3154, "price_range": "$715,400 – $967,000", "sf_range": "1,832 – 3,154 SF", "city": "Littleton", "county": "Douglas", "state": "CO", "zip": 80125 }, "geometry": { "type": "Point", "coordinates": [ -105.058514, 39.529139 ] } },
{ "type": "Feature", "properties": { "builder": "American Legend Homes", "community": "Timber Ridge", "project_type": "Single Family", "status": "Active", "price_min_raw": 670990, "price_max_raw": 997588, "sf_min": 3119, "sf_max": 5283, "price_range": "$670,990 – $997,588", "sf_range": "3,119 – 5,283 SF", "city": "Colorado Springs", "county": "El Paso", "state": "CO", "zip": 80908 }, "geometry": { "type": "Point", "coordinates": [ -104.670142, 38.969678 ] } },
{ "type": "Feature", "properties": { "builder": "Joy of the Rockies Realty", "community": "Encore at Aria", "project_type": "Not Specified", "status": "Active", "price_min_raw": 389700, "price_max_raw": 623350, "sf_min": 0, "sf_max": 1112, "price_range": "$389,700 – $623,350", "sf_range": "0 – 1,112 SF", "city": "Denver", "county": "Denver", "state": "CO", "zip": 80221 }, "geometry": { "type": "Point", "coordinates": [ -105.0235, 39.79109 ] } },
{ "type": "Feature", "properties": { "builder": "Baessler Homes", "community": "Mountain View", "project_type": "Single Family", "status": "Active", "price_min_raw": 320000, "price_max_raw": 392000, "sf_min": 790, "sf_max": 1385, "price_range": "$320,000 – $392,000", "sf_range": "790 – 1,385 SF", "city": "Johnstown", "county": "Weld", "state": "CO", "zip": 80534 }, "geometry": { "type": "Point", "coordinates": [ -104.903056, 40.332111 ] } },
{ "type": "Feature", "properties": { "builder": "Meritage Homes", "community": "Revere at Johnstown", "project_type": "Single Family", "status": "Active", "price_min_raw": 459990, "price_max_raw": 559990, "sf_min": 1888, "sf_max": 2562, "price_range": "$459,990 – $559,990", "sf_range": "1,888 – 2,562 SF", "city": "Johnstown", "county": "Weld", "state": "CO", "zip": 80534 }, "geometry": { "type": "Point", "coordinates": [ -104.974023, 40.345008 ] } },
{ "type": "Feature", "properties": { "builder": "Thrive Home Builders", "community": "Loretto Heights 3-Story", "project_type": "Not Specified", "status": "Active", "price_min_raw": 489900, "price_max_raw": 625000, "sf_min": 0, "sf_max": 1851, "price_range": "$489,900 – $625,000", "sf_range": "0 – 1,851 SF", "city": "Denver", "county": "Denver", "state": "CO", "zip": 80236 }, "geometry": { "type": "Point", "coordinates": [ -105.026921, 39.664065 ] } },
{ "type": "Feature", "properties": { "builder": "Meritage Homes", "community": "Meridian Ranch", "project_type": "Single Family", "status": "Active", "price_min_raw": 479990, "price_max_raw": 564990, "sf_min": 1565, "sf_max": 2780, "price_range": "$479,990 – $564,990", "sf_range": "1,565 – 2,780 SF", "city": "Peyton", "county": "El Paso", "state": "CO", "zip": 80831 }, "geometry": { "type": "Point", "coordinates": [ -104.5799, 38.9874 ] } },
{ "type": "Feature", "properties": { "builder": "Toll Brothers", "community": "Toll Brothers at Macanta", "project_type": "Single Family", "status": "Active", "price_min_raw": 983995, "price_max_raw": 1499995, "sf_min": 2974, "sf_max": 4282, "price_range": "$983,995 – $1,499,995", "sf_range": "2,974 – 4,282 SF", "city": "Castle Rock", "county": "Douglas", "state": "CO", "zip": 80108 }, "geometry": { "type": "Point", "coordinates": [ -104.822582, 39.415039 ] } },
{ "type": "Feature", "properties": { "builder": "Lennar", "community": "Parterre - The Parkside Collection", "project_type": "Single Family", "status": "Active", "price_min_raw": 439900, "price_max_raw": 492400, "sf_min": 1099, "sf_max": 1673, "price_range": "$439,900 – $492,400", "sf_range": "1,099 – 1,673 SF", "city": "Thornton", "county": "Adams", "state": "CO", "zip": 80602 }, "geometry": { "type": "Point", "coordinates": [ -104.9155, 39.969 ] } },
{ "type": "Feature", "properties": { "builder": "Richmond American Homes", "community": "Thompson River Ranch", "project_type": "Single Family", "status": "Active", "price_min_raw": 474950, "price_max_raw": 589950, "sf_min": 1630, "sf_max": 3100, "price_range": "$474,950 – $589,950", "sf_range": "1,630 – 3,100 SF", "city": "Johnstown", "county": "Larimer", "state": "CO", "zip": 80534 }, "geometry": { "type": "Point", "coordinates": [ -104.967098, 40.386582 ] } },
{ "type": "Feature", "properties": { "builder": "American Legend Homes", "community": "Sterling Ranch Homestead 80s", "project_type": "Single Family", "status": "Active", "price_min_raw": 566990, "price_max_raw": 947588, "sf_min": 1694, "sf_max": 4222, "price_range": "$566,990 – $947,588", "sf_range": "1,694 – 4,222 SF", "city": "Colorado Springs", "county": "El Paso", "state": "CO", "zip": 80908 }, "geometry": { "type": "Point", "coordinates": [ -104.670142, 38.969678 ] } },
{ "type": "Feature", "properties": { "builder": "Tralon Homes LLC", "community": "The Ridge at Lorson Ranch", "project_type": "Not Specified", "status": "Active", "price_min_raw": 0, "price_max_raw": 519618, "sf_min": 1443, "sf_max": 2466, "price_range": "$0 – $519,618", "sf_range": "1,443 – 2,466 SF", "city": "Colorado Springs", "county": "El Paso", "state": "CO", "zip": 80925 }, "geometry": { "type": "Point", "coordinates": [ -104.610083, 38.743722 ] } },
{ "type": "Feature", "properties": { "builder": "Landsea Homes", "community": "Pintail Commons at Johnstown Village", "project_type": null, "status": "Active", "price_min_raw": 349950, "price_max_raw": 433400, "sf_min": 1159, "sf_max": 1643, "price_range": "$349,950 – $433,400", "sf_range": "1,159 – 1,643 SF", "city": "Johnstown", "county": "Weld", "state": "CO", "zip": 80534 }, "geometry": { "type": "Point", "coordinates": [ -104.939841, 40.333061 ] } },
{ "type": "Feature", "properties": { "builder": "Tri Pointe Homes", "community": "Prelude at The Aurora Highlands", "project_type": "Single Family", "status": "Active", "price_min_raw": 594900, "price_max_raw": 749900, "sf_min": 1902, "sf_max": 2570, "price_range": "$594,900 – $749,900", "sf_range": "1,902 – 2,570 SF", "city": "Aurora", "county": "Arapahoe", "state": "CO", "zip": 80019 }, "geometry": { "type": "Point", "coordinates": [ -104.698612, 39.764106 ] } },
{ "type": "Feature", "properties": { "builder": "Toll Brothers", "community": "Red Rocks at Kissing Camels", "project_type": "Single Family", "status": "Active", "price_min_raw": 847995, "price_max_raw": 1350000, "sf_min": 2509, "sf_max": 5382, "price_range": "$847,995 – $1,350,000", "sf_range": "2,509 – 5,382 SF", "city": "Colorado Springs", "county": "El Paso", "state": "CO", "zip": 80904 }, "geometry": { "type": "Point", "coordinates": [ -104.849711, 38.881947 ] } },
{ "type": "Feature", "properties": { "builder": "Bartran Construction", "community": "Promontory Point", "project_type": "Not Specified", "status": "Active", "price_min_raw": 465000, "price_max_raw": 520500, "sf_min": 0, "sf_max": 2904, "price_range": "$465,000 – $520,500", "sf_range": "0 – 2,904 SF", "city": "Greeley", "county": "Weld", "state": "CO", "zip": 80634 }, "geometry": { "type": "Point", "coordinates": [ -104.84728, 40.418978 ] } },
{ "type": "Feature", "properties": { "builder": "Pulte Homes", "community": "Hilltop at Inspiration", "project_type": "Single Family", "status": "Active", "price_min_raw": 663990, "price_max_raw": 927990, "sf_min": 1830, "sf_max": 2969, "price_range": "$663,990 – $927,990", "sf_range": "1,830 – 2,969 SF", "city": "Aurora", "county": "Arapahoe", "state": "CO", "zip": 80016 }, "geometry": { "type": "Point", "coordinates": [ -104.721322, 39.564276 ] } },
{ "type": "Feature", "properties": { "builder": "Lennar", "community": "Macanta - The Grand Collection", "project_type": "Single Family", "status": "Active", "price_min_raw": 828900, "price_max_raw": 1066900, "sf_min": 2175, "sf_max": 3917, "price_range": "$828,900 – $1,066,900", "sf_range": "2,175 – 3,917 SF", "city": "Castle Rock", "county": "Douglas", "state": "CO", "zip": 80108 }, "geometry": { "type": "Point", "coordinates": [ -104.817, 39.4183 ] } },
{ "type": "Feature", "properties": { "builder": "Baessler Homes", "community": "Liberty Draw", "project_type": "Single Family", "status": "Active", "price_min_raw": 295000, "price_max_raw": 482000, "sf_min": 790, "sf_max": 1911, "price_range": "$295,000 – $482,000", "sf_range": "790 – 1,911 SF", "city": "Evans", "county": "Weld", "state": "CO", "zip": 80620 }, "geometry": { "type": "Point", "coordinates": [ -104.741, 40.37775 ] } },
{ "type": "Feature", "properties": { "builder": "Vantage Homes", "community": "Wolf Ranch", "project_type": "Not Specified", "status": "Grand Opening", "price_min_raw": 552600, "price_max_raw": 940000, "sf_min": 1379, "sf_max": 4642, "price_range": "$552,600 – $940,000", "sf_range": "1,379 – 4,642 SF", "city": "Colorado Springs", "county": "El Paso", "state": "CO", "zip": 80924 }, "geometry": { "type": "Point", "coordinates": [ -104.706638, 38.967576 ] } },
{ "type": "Feature", "properties": { "builder": "Tri Pointe Homes", "community": "Wild Oak at The Canyons", "project_type": "Single Family", "status": "Active", "price_min_raw": 750000, "price_max_raw": 850000, "sf_min": 2291, "sf_max": 3076, "price_range": "$750,000 – $850,000", "sf_range": "2,291 – 3,076 SF", "city": "Castle Pines", "county": "Douglas", "state": "CO", "zip": 80108 }, "geometry": { "type": "Point", "coordinates": [ -104.858212, 39.462116 ] } },
{ "type": "Feature", "properties": { "builder": "Oakwood Homes", "community": "Muegge Farms", "project_type": "Not Specified", "status": "Grand Opening", "price_min_raw": 349990, "price_max_raw": 466766, "sf_min": 0, "sf_max": 2165, "price_range": "$349,990 – $466,766", "sf_range": "0 – 2,165 SF", "city": "Bennett", "county": "Adams", "state": "CO", "zip": 80102 }, "geometry": { "type": "Point", "coordinates": [ -104.411031, 39.807124 ] } },
{ "type": "Feature", "properties": { "builder": "Horizon View Homes", "community": "Lochbuie Station", "project_type": null, "status": "Active", "price_min_raw": 479000, "price_max_raw": 554995, "sf_min": 1506, "sf_max": 2452, "price_range": "$479,000 – $554,995", "sf_range": "1,506 – 2,452 SF", "city": "Lochbuie", "county": "Weld", "state": "CO", "zip": 80603 }, "geometry": { "type": "Point", "coordinates": [ -104.728472, 39.996719 ] } },
{ "type": "Feature", "properties": { "builder": "Tri Pointe Homes", "community": "Medley at Reunion Ridge", "project_type": "Single Family", "status": "Active", "price_min_raw": 524900, "price_max_raw": 639900, "sf_min": 2281, "sf_max": 2610, "price_range": "$524,900 – $639,900", "sf_range": "2,281 – 2,610 SF", "city": "Commerce City", "county": "Adams", "state": "CO", "zip": 80022 }, "geometry": { "type": "Point", "coordinates": [ -104.831184, 39.88256 ] } },
{ "type": "Feature", "properties": { "builder": "Landmark Homes - CO", "community": "The Lakes at Centerra", "project_type": "Condominium", "status": "Active", "price_min_raw": 341900, "price_max_raw": 573400, "sf_min": 876, "sf_max": 2431, "price_range": "$341,900 – $573,400", "sf_range": "876 – 2,431 SF", "city": "Loveland", "county": "Larimer", "state": "CO", "zip": 80538 }, "geometry": { "type": "Point", "coordinates": [ -105.017887, 40.426054 ] } },
{ "type": "Feature", "properties": { "builder": "Taylor Morrison", "community": "Trailstone Explorer Collection", "project_type": "Single Family", "status": "Active", "price_min_raw": 699999, "price_max_raw": 884139, "sf_min": 1780, "sf_max": 2829, "price_range": "$699,999 – $884,139", "sf_range": "1,780 – 2,829 SF", "city": "Arvada", "county": "Jefferson", "state": "CO", "zip": 80007 }, "geometry": { "type": "Point", "coordinates": [ -105.18916, 39.866819 ] } },
{ "type": "Feature", "properties": { "builder": "Meritage Homes", "community": "Buffalo Highlands: The Canyon Collection", "project_type": "Single Family", "status": "Active", "price_min_raw": 519990, "price_max_raw": 749990, "sf_min": 1792, "sf_max": 3137, "price_range": "$519,990 – $749,990", "sf_range": "1,792 – 3,137 SF", "city": "Commerce City", "county": "Adams", "state": "CO", "zip": 80022 }, "geometry": { "type": "Point", "coordinates": [ -104.7849, 39.860307 ] } },
{ "type": "Feature", "properties": { "builder": "Toll Brothers", "community": "Allison Ranch - Point Collection", "project_type": "Single Family", "status": "Active", "price_min_raw": 657995, "price_max_raw": 800000, "sf_min": 2216, "sf_max": 2638, "price_range": "$657,995 – $800,000", "sf_range": "2,216 – 2,638 SF", "city": "Parker", "county": "Douglas", "state": "CO", "zip": 80134 }, "geometry": { "type": "Point", "coordinates": [ -104.779637, 39.450896 ] } },
{ "type": "Feature", "properties": { "builder": "Lennar", "community": "Copper Chase - The Celestial Collection", "project_type": "Single Family", "status": "Active", "price_min_raw": 451900, "price_max_raw": 486900, "sf_min": 1572, "sf_max": 1880, "price_range": "$451,900 – $486,900", "sf_range": "1,572 – 1,880 SF", "city": "Colorado Springs", "county": "El Paso", "state": "CO", "zip": 80908 }, "geometry": { "type": "Point", "coordinates": [ -104.6827, 38.9575 ] } },
{ "type": "Feature", "properties": { "builder": "Thrive Home Builders", "community": "Loretto Heights 2-Story", "project_type": "Not Specified", "status": "Active", "price_min_raw": 545900, "price_max_raw": 651486, "sf_min": 1392, "sf_max": 2046, "price_range": "$545,900 – $651,486", "sf_range": "1,392 – 2,046 SF", "city": "Denver", "county": "Denver", "state": "CO", "zip": 80236 }, "geometry": { "type": "Point", "coordinates": [ -105.026811, 39.664532 ] } },
{ "type": "Feature", "properties": { "builder": "McStain Neighborhoods", "community": "Painted Prairie", "project_type": "Townhome", "status": "Active", "price_min_raw": 462900, "price_max_raw": 524125, "sf_min": 0, "sf_max": 1685, "price_range": "$462,900 – $524,125", "sf_range": "0 – 1,685 SF", "city": "Aurora", "county": "Adams", "state": "CO", "zip": 80019 }, "geometry": { "type": "Point", "coordinates": [ -104.748179, 39.802435 ] } },
{ "type": "Feature", "properties": { "builder": "Meritage Homes", "community": "Horizon Uptown: The Mountain Collection", "project_type": "Single Family", "status": "Active", "price_min_raw": 464990, "price_max_raw": 552990, "sf_min": 1461, "sf_max": 2011, "price_range": "$464,990 – $552,990", "sf_range": "1,461 – 2,011 SF", "city": "Aurora", "county": "Arapahoe", "state": "CO", "zip": 80018 }, "geometry": { "type": "Point", "coordinates": [ -104.729279, 39.72809 ] } },
{ "type": "Feature", "properties": { "builder": "KB Home", "community": "Farmlore", "project_type": "Single Family", "status": "Active", "price_min_raw": 499990, "price_max_raw": 600000, "sf_min": 1606, "sf_max": 2861, "price_range": "$499,990 – $600,000", "sf_range": "1,606 – 2,861 SF", "city": "Brighton", "county": "Adams", "state": "CO", "zip": 80601 }, "geometry": { "type": "Point", "coordinates": [ -104.802423, 39.956037 ] } },
{ "type": "Feature", "properties": { "builder": "Century Communities", "community": "The Aurora Highlands", "project_type": null, "status": "Active", "price_min_raw": 528990, "price_max_raw": 724990, "sf_min": 1880, "sf_max": 2433, "price_range": "$528,990 – $724,990", "sf_range": "1,880 – 2,433 SF", "city": "Aurora", "county": "Adams", "state": "CO", "zip": 80019 }, "geometry": { "type": "Point", "coordinates": [ -104.696392, 39.720381 ] } },
{ "type": "Feature", "properties": { "builder": "Shea Homes", "community": "Harmony at Solstice", "project_type": "Single Family", "status": "Active", "price_min_raw": 688990, "price_max_raw": 830185, "sf_min": 2026, "sf_max": 2740, "price_range": "$688,990 – $830,185", "sf_range": "2,026 – 2,740 SF", "city": "Littleton", "county": "Douglas", "state": "CO", "zip": 80125 }, "geometry": { "type": "Point", "coordinates": [ -105.054581, 39.525894 ] } },
{ "type": "Feature", "properties": { "builder": "Vantage Homes", "community": "Home Place Ranch", "project_type": "Not Specified", "status": "Active", "price_min_raw": 599600, "price_max_raw": 931900, "sf_min": 1379, "sf_max": 5581, "price_range": "$599,600 – $931,900", "sf_range": "1,379 – 5,581 SF", "city": "Monument", "county": "El Paso", "state": "CO", "zip": 80132 }, "geometry": { "type": "Point", "coordinates": [ -104.856638, 39.079833 ] } },
{ "type": "Feature", "properties": { "builder": "Taylor Morrison", "community": "Macanta Expedition Collection", "project_type": null, "status": "Active", "price_min_raw": 998990, "price_max_raw": 1048990, "sf_min": 2383, "sf_max": 4038, "price_range": "$998,990 – $1,048,990", "sf_range": "2,383 – 4,038 SF", "city": "Castle Rock", "county": "Douglas", "state": "CO", "zip": 80108 }, "geometry": { "type": "Point", "coordinates": [ -104.831801, 39.419891 ] } },
{ "type": "Feature", "properties": { "builder": "Vantage Homes", "community": "Sterling Ranch", "project_type": "Not Specified", "status": "Active", "price_min_raw": 491900, "price_max_raw": 799900, "sf_min": 1379, "sf_max": 5581, "price_range": "$491,900 – $799,900", "sf_range": "1,379 – 5,581 SF", "city": "Colorado Springs", "county": "El Paso", "state": "CO", "zip": 80908 }, "geometry": { "type": "Point", "coordinates": [ -104.670031, 38.969152 ] } },
{ "type": "Feature", "properties": { "builder": "Richmond American Homes", "community": "Cityscape at Parkdale", "project_type": "Single Family", "status": "Active", "price_min_raw": 549950, "price_max_raw": 634950, "sf_min": 1930, "sf_max": 1972, "price_range": "$549,950 – $634,950", "sf_range": "1,930 – 1,972 SF", "city": "Lafayette", "county": "Boulder", "state": "CO", "zip": 80026 }, "geometry": { "type": "Point", "coordinates": [ -105.07613, 40.003307 ] } },
{ "type": "Feature", "properties": { "builder": "Shea Homes", "community": "Reserve at The Canyons", "project_type": "Single Family", "status": "Active", "price_min_raw": 787400, "price_max_raw": 1044020, "sf_min": 1992, "sf_max": 3118, "price_range": "$787,400 – $1,044,020", "sf_range": "1,992 – 3,118 SF", "city": "Castle Pines", "county": "Douglas", "state": "CO", "zip": 80108 }, "geometry": { "type": "Point", "coordinates": [ -104.865905, 39.469845 ] } },
{ "type": "Feature", "properties": { "builder": "Koelbel Communities", "community": "CityHomes at Boulevard One", "project_type": "Townhome", "status": "Active", "price_min_raw": 1549000, "price_max_raw": 1595000, "sf_min": 2795, "sf_max": 3764, "price_range": "$1,549,000 – $1,595,000", "sf_range": "2,795 – 3,764 SF", "city": "Denver", "county": "Denver", "state": "CO", "zip": 80230 }, "geometry": { "type": "Point", "coordinates": [ -104.91046, 39.71621 ] } },
{ "type": "Feature", "properties": { "builder": "Lennar", "community": "Sunset Village - The Grand Collection", "project_type": "Single Family", "status": "Active", "price_min_raw": 872900, "price_max_raw": 1071900, "sf_min": 2175, "sf_max": 4018, "price_range": "$872,900 – $1,071,900", "sf_range": "2,175 – 4,018 SF", "city": "Erie", "county": "Weld", "state": "CO", "zip": 80516 }, "geometry": { "type": "Point", "coordinates": [ -105.022, 40.035 ] } },
{ "type": "Feature", "properties": { "builder": "American Legend Homes", "community": "Sterling Ranch Homestead 60s", "project_type": "Single Family", "status": "Active", "price_min_raw": 561990, "price_max_raw": 817588, "sf_min": 1694, "sf_max": 4327, "price_range": "$561,990 – $817,588", "sf_range": "1,694 – 4,327 SF", "city": "Colorado Springs", "county": "El Paso", "state": "CO", "zip": 80908 }, "geometry": { "type": "Point", "coordinates": [ -104.670142, 38.969678 ] } },
{ "type": "Feature", "properties": { "builder": "Meritage Homes", "community": "Westgate", "project_type": "Single Family", "status": "Active", "price_min_raw": 471990, "price_max_raw": 499990, "sf_min": 1888, "sf_max": 2562, "price_range": "$471,990 – $499,990", "sf_range": "1,888 – 2,562 SF", "city": "Greeley", "county": "Weld", "state": "CO", "zip": 80634 }, "geometry": { "type": "Point", "coordinates": [ -104.7978, 40.39362 ] } },
{ "type": "Feature", "properties": { "builder": "Toll Brothers", "community": "Toll Brothers at Heron Lakes", "project_type": "Single Family", "status": "Active", "price_min_raw": 734995, "price_max_raw": 1010000, "sf_min": 1874, "sf_max": 2727, "price_range": "$734,995 – $1,010,000", "sf_range": "1,874 – 2,727 SF", "city": "Berthoud", "county": "Larimer", "state": "CO", "zip": 80513 }, "geometry": { "type": "Point", "coordinates": [ -105.109795, 40.339928 ] } },
{ "type": "Feature", "properties": { "builder": "Landmark Homes - CO", "community": "Northfield at Old Town", "project_type": "Condominium", "status": "Active", "price_min_raw": 349900, "price_max_raw": 507900, "sf_min": 876, "sf_max": 1677, "price_range": "$349,900 – $507,900", "sf_range": "876 – 1,677 SF", "city": "Fort Collins", "county": "Larimer", "state": "CO", "zip": 80524 }, "geometry": { "type": "Point", "coordinates": [ -105.062599, 40.599959 ] } },
{ "type": "Feature", "properties": { "builder": "Trumark Homes", "community": "Sugar Hills at RainDance", "project_type": "Single Family", "status": "Active", "price_min_raw": 770000, "price_max_raw": 1425000, "sf_min": 2461, "sf_max": 4126, "price_range": "$770,000 – $1,425,000", "sf_range": "2,461 – 4,126 SF", "city": "Windsor", "county": "Weld", "state": "CO", "zip": 80550 }, "geometry": { "type": "Point", "coordinates": [ -104.939551, 40.454843 ] } },
{ "type": "Feature", "properties": { "builder": "Lennar", "community": "Reunion - The Innovative Collection", "project_type": "Single Family", "status": "Active", "price_min_raw": 494900, "price_max_raw": 609900, "sf_min": 1359, "sf_max": 2758, "price_range": "$494,900 – $609,900", "sf_range": "1,359 – 2,758 SF", "city": "Commerce City", "county": "Adams", "state": "CO", "zip": 80022 }, "geometry": { "type": "Point", "coordinates": [ -104.7943, 39.8967 ] } },
{ "type": "Feature", "properties": { "builder": "Century Communities", "community": "Grand Vue at Interlocken", "project_type": null, "status": "Active", "price_min_raw": 494990, "price_max_raw": 655960, "sf_min": 1138, "sf_max": 1936, "price_range": "$494,990 – $655,960", "sf_range": "1,138 – 1,936 SF", "city": "Broomfield", "county": "Broomfield", "state": "CO", "zip": 80021 }, "geometry": { "type": "Point", "coordinates": [ -105.121068, 39.925018 ] } },
{ "type": "Feature", "properties": { "builder": "Oakwood Homes", "community": "Green Valley Ranch", "project_type": "Not Specified", "status": "Grand Opening", "price_min_raw": 399990, "price_max_raw": 614990, "sf_min": 1452, "sf_max": 2771, "price_range": "$399,990 – $614,990", "sf_range": "1,452 – 2,771 SF", "city": "Aurora", "county": "Arapahoe", "state": "CO", "zip": 80019 }, "geometry": { "type": "Point", "coordinates": [ -104.73243, 39.78075 ] } },
{ "type": "Feature", "properties": { "builder": "Berkeley Homes", "community": "Ralston Creek by Berkeley Homes", "project_type": "Townhome", "status": "Active", "price_min_raw": 519900, "price_max_raw": 574277, "sf_min": 1379, "sf_max": 1518, "price_range": "$519,900 – $574,277", "sf_range": "1,379 – 1,518 SF", "city": "Arvada", "county": "Jefferson", "state": "CO", "zip": 80002 }, "geometry": { "type": "Point", "coordinates": [ -105.104207, 39.803335 ] } },
{ "type": "Feature", "properties": { "builder": "Meritage Homes", "community": "Lorson Ranch : The Springs Collection", "project_type": "Single Family", "status": "Active", "price_min_raw": 452990, "price_max_raw": 527990, "sf_min": 1866, "sf_max": 2419, "price_range": "$452,990 – $527,990", "sf_range": "1,866 – 2,419 SF", "city": "Colorado Springs", "county": "El Paso", "state": "CO", "zip": 80925 }, "geometry": { "type": "Point", "coordinates": [ -104.620581, 38.736262 ] } },
{ "type": "Feature", "properties": { "builder": "Richmond American Homes", "community": "Urban Collection at Kinston", "project_type": "Single Family", "status": "Active", "price_min_raw": 405950, "price_max_raw": 440950, "sf_min": 1450, "sf_max": 1470, "price_range": "$405,950 – $440,950", "sf_range": "1,450 – 1,470 SF", "city": "Loveland", "county": "Larimer", "state": "CO", "zip": 80538 }, "geometry": { "type": "Point", "coordinates": [ -104.980033, 40.419814 ] } },
{ "type": "Feature", "properties": { "builder": "Tri Pointe Homes", "community": "Painted Prairie", "project_type": "Single Family", "status": "Active", "price_min_raw": 504900, "price_max_raw": 649900, "sf_min": 1578, "sf_max": 2155, "price_range": "$504,900 – $649,900", "sf_range": "1,578 – 2,155 SF", "city": "Aurora", "county": "Arapahoe", "state": "CO", "zip": 80019 }, "geometry": { "type": "Point", "coordinates": [ -104.745868, 39.800007 ] } },
{ "type": "Feature", "properties": { "builder": "Toll Brothers", "community": "Toll Brothers at Timnath Lakes - Summit Collection", "project_type": "Single Family", "status": "Active", "price_min_raw": 1028995, "price_max_raw": 1390000, "sf_min": 3405, "sf_max": 4314, "price_range": "$1,028,995 – $1,390,000", "sf_range": "3,405 – 4,314 SF", "city": "Timnath", "county": "Larimer", "state": "CO", "zip": 80547 }, "geometry": { "type": "Point", "coordinates": [ -104.972287, 40.527439 ] } },
{ "type": "Feature", "properties": { "builder": "Lennar", "community": "Sky Ranch - Pioneer Collection", "project_type": "Single Family", "status": "Active", "price_min_raw": 519900, "price_max_raw": 584900, "sf_min": 1883, "sf_max": 2379, "price_range": "$519,900 – $584,900", "sf_range": "1,883 – 2,379 SF", "city": "Watkins", "county": "Arapahoe", "state": "CO", "zip": 80137 }, "geometry": { "type": "Point", "coordinates": [ -104.6519, 39.7265 ] } },
{ "type": "Feature", "properties": { "builder": "Richmond American Homes", "community": "Vista West", "project_type": "Single Family", "status": "Active", "price_min_raw": 414950, "price_max_raw": 559950, "sf_min": 1200, "sf_max": 2688, "price_range": "$414,950 – $559,950", "sf_range": "1,200 – 2,688 SF", "city": "Keenesburg", "county": "Weld", "state": "CO", "zip": 80643 }, "geometry": { "type": "Point", "coordinates": [ -104.524093, 40.105373 ] } },
{ "type": "Feature", "properties": { "builder": "Tri Pointe Homes", "community": "Crescendo Collection at Reunion", "project_type": "Single Family", "status": "Active", "price_min_raw": 512900, "price_max_raw": 649900, "sf_min": 1816, "sf_max": 2641, "price_range": "$512,900 – $649,900", "sf_range": "1,816 – 2,641 SF", "city": "Commerce City", "county": "Adams", "state": "CO", "zip": 80022 }, "geometry": { "type": "Point", "coordinates": [ -104.780199, 39.89131 ] } },
{ "type": "Feature", "properties": { "builder": "Taylor Morrison", "community": "Farmlore", "project_type": "Single Family", "status": "Active", "price_min_raw": 448990, "price_max_raw": 2147483647, "sf_min": 1606, "sf_max": 2091, "price_range": "$448,990 – $2,147,483,647", "sf_range": "1,606 – 2,091 SF", "city": "Brighton", "county": "Adams", "state": "CO", "zip": 80601 }, "geometry": { "type": "Point", "coordinates": [ -104.808181, 39.957216 ] } },